"type","commune","long","lat"
"G","STAINS","2.38477081213106","48.95697896925072"
"G","BARBENTANE","4.782764958344966","43.89664869302909"
"G","GOURDON","1.3895325731085","44.74128735384591"
"G","VENEUX-LES-SABLONS","2.7986235689016192","48.37853033164535"
"G","MONTGEROULT","2.003781236555363","49.0804673352717"
"G","COURTENAY","3.057087813065508","48.03665774449413"
"G","RODEZ","2.5790575826638484","44.362921571646545"
"G","SAULIEU","4.235869427228799","47.283046495542564"
"G","WILLER-SUR-THUR","7.069077935970574","47.84285171581116"
"G","HESDIGNEUL-LÈS-BOULOGNE","1.666817540767514","50.66096776465705"
"G","CHISSAY-EN-TOURAINE","1.133683878470545","47.33495546093258"
"G","NAUCELLE","2.363718782362403","44.18591308494914"
"G","CIRES-LÈS-MELLO","2.360280451577405","49.2714904533875"
"G","GIRONDE-SUR-DROPT","-0.091953787971817","44.58299090218213"
"G","NOTRE-DAME-D'OÉ","0.706973270019154","47.459617916080404"
"G","SAINT-BONNET-DE-ROCHEFORT","3.139628459846439","46.148424266054526"
"G","BONSON","4.21636058621463","45.5223184083818"
"G","SAINT-MARTIN-D'ONEY","-0.651690105338138","43.930059358210656"
"G","AULNAT","3.16098536301033","45.792055655552275"
"G","CAGNES-SUR-MER","7.1576710473651755","43.659060618837515"
"G","BRIOUZE","-0.367535126679657","48.7020208054378"
"G","CADAUJAC","-0.537923689084897","44.75198423836627"
"G","SAINT-HERBLAIN","-1.660234706510865","47.20418674117419"
"G","TOURNEMIRE","3.016591363237482","43.96998189614436"
"G","MAROLLES","1.292695956899221","47.63804811648232"
"G","COUSSAC-BONNEVAL","1.311166875374606","45.50753132485294"
"G","BOURBRIAC","-3.242782593047977","48.50779865852206"
"G","NEUVIC","0.445212384622905","45.09983757266865"
"G","SAINT-ROMAIN-LE-PUY","4.120823009766296","45.554415326144856"
"G","SALON-DE-PROVENCE","5.088449456368936","43.63903995373267"
"G","GENECH","3.2197982278776553","50.53566448058035"
"G","TAVERNY","2.2256886828321907","49.023436759280926"
"G","SAINT-RAMBERT-EN-BUGEY","5.439242836530275","45.947525236632266"
"G","OSNY","2.05788773368052","49.062936472512014"
"G","VICHEL-NANTEUIL","3.270686744679686","49.187223732361474"
"G","SCHERWILLER","7.430588256913284","48.286882007940456"
"G","SARLAT-LA-CANEDA","1.218473948248141","44.877475178977484"
"G","LUC","3.891547451608411","44.654034043533834"
"G","NANTERRE","2.2145358605752845","48.8989455654192"
"G","GIÈVRES","1.669476906726719","47.290360701884595"
"G","DURTOL","3.048818419999533","45.79465429106325"
"G","GARNAY","1.345943393170927","48.7033345172712"
"G","SAINT-PIERRE-LE-MOÛTIER","3.111442056711583","46.79333350532142"
"G","METZERAL","7.073476717323556","48.01357036107344"
"G","GUÉRIGNY","3.196937986665153","47.09173920690405"
"G","MENNETOU-SUR-CHER","1.876751857359999","47.26893883665513"
"G","FENOUILLET","1.4018132812564992","43.68373385308934"
"G","BLANC-MESNIL (LE )","2.477352075523793","48.93214794166505"
"G","CONFLANS-SAINTE-HONORINE","2.085755184598008","48.99346948832799"
"G","ERAGNY","2.089559033193969","49.01714825239404"
"G","VERGIGNY","3.732131157494544","47.98084208086039"
"G","CHÂTEAULIN","-4.094446373150009","48.20142818283691"
"G","ROMBAS","6.099224950443746","49.25598422432133"
"G","RECQUIGNIES","4.044414592795842","50.28403349483933"
"G","EINVAUX","6.393118791209494","48.50340331783305"
"G","GUIGNICOURT","3.961335731591036","49.43440304172821"
"G","MARCQ-EN-BAROEUL","3.105847130233249","50.65429044322478"
"G","PURE","5.164127915872865","49.676840328434906"
"G","ARCHIGNAT","2.420206926523613","46.3682992419781"
"G","SÉRIFONTAINE","1.763928393006749","49.357294436674024"
"G","L'HÔPITAL-DU-GROSBOIS","6.213061569563704","47.169106435955705"
"G","CAUSSADE","1.533047244838831","44.16128580816961"
"G","HOUILLES","2.184667700712801","48.92079330346866"
"G","LEZIGNAN-CORBIERES","2.770303082552138","43.20006278023994"
"G","VOYENNE","3.720663948379546","49.72623069199656"
"G","ECHIROLLES","5.719928252527468","45.15277648368396"
"G","MESSAC","-1.818552894324703","47.82231315304846"
"G","CLÉRAC","-0.225789042171448","45.19132375598026"
"G","LARDY","2.2713484871500325","48.52594977610331"
"G","ROZIÈRES-SUR-MOUZON","5.705525159209666","48.120907804657705"
"G","VIEUX-THANN","7.126726646891293","47.80369206927358"
"G","AVRIGNY","2.579213743754112","49.39112509688112"
"G","MORTAGNE-DU-NORD","3.443184869526689","50.496948473911736"
"G","VILLAINES-SOUS-BOIS","2.349391049822035","49.07861560140032"
"G","CHILLY-MAZARIN","2.30763068293776","48.70089336649203"
"G","VAL-DE-VESLE","4.222153557570627","49.17809390171898"
"G","BREUILLET","2.1815202679265475","48.571009540546456"
"G","ZOUFFTGEN","6.129087542059962","49.45545408846772"
"G","SAUTO","2.159738420428227","42.50617882069271"
"G","BEZANNES","3.9946751637280205","49.21411963106483"
"G","GOUSSAINVILLE","2.4713481380459585","49.02889020335305"
"G","ASNIERES-SUR-SEINE","2.2832166781185075","48.90570303854812"
"G","PERPIGNAN","2.879962976592279","42.694886083540965"
"G","NEUVILLE-SUR-SARTHE","0.199790147044718","48.07039776072107"
"G","VIERZY","3.27762364426753","49.29089353629479"
"G","MONTFORT-SUR-MEU","-1.948812414663325","48.13908925033736"
"G","ANGOULEME","0.1362556365467347","45.64618242123404"
"G","MARLY","3.535189707711709","50.3482728036862"
"G","CHASSERADÈS","3.839817631340908","44.553902953903226"
"G","APACH","6.372132150675619","49.45892731564016"
"G","LE VERNET","1.611607072773937","43.18934614579822"
"G","CLELLES","5.605804968359903","44.82699348583543"
"G","SAINT-JULIEN-DU-SAULT","3.303670571003013","48.027848551444485"
"G","DORLISHEIM","7.493034019441705","48.52464790963129"
"G","HUNSPACH","7.954017147393979","48.961462272109436"
"G","VAYRAC","1.706369220262521","44.95012834321699"
"G","NEUVILLE-SUR-SAÔNE","4.841398284409049","45.87876988129356"
"G","AVON","2.727200067146435","48.41746394574521"
"G","DONJEUX","5.148488988847299","48.36612365379502"
"G","MÉZIDON-CANON","-0.07476077817325","49.070784795166475"
"G","MAINVILLIERS","1.469251102518194","48.44657616436999"
"G","MUHLBACH-SUR-MUNSTER","7.087636083352972","48.02448731356157"
"G","BEAUTOT","1.046092453274377","49.632948061013444"
"G","NUITS-SAINT-GEORGES","4.956243348661263","47.13037408068024"
"G","GRAND-QUEVILLY (LE )","1.037242349286338","49.41205596520126"
"G","MONTIVILLIERS","0.187677128868422","49.53492835884648"
"G","YZEURE","3.3381568455479034","46.55766879054278"
"G","SAINT-BRANDAN","-2.891700844368296","48.39735236712676"
"G","CHAMPAGNEY","6.701655766296653","47.70310904889356"
"G","PESEUX","5.344425867939907","46.99475783909085"
"G","SAINT-AUBIN-DES-BOIS","1.331738952026448","48.447662575131886"
"G","DANNEMARIE-SUR-CRÈTE","5.873778668862695","47.20387321386446"
"G","CAMIERS","1.614866883534974","50.57625634487162"
"G","SELOMMES","1.193306201849907","47.750884609578925"
"G","HOERDT","7.7797685201344","48.70309760982452"
"G","JAUNAY-CLAN","0.381853882075925","46.68198061597681"
"G","MARGNY-LÈS-COMPIÈGNE","2.828590552251044","49.42515435595403"
"G","VERTOU","-1.477960707809942","47.18605510217721"
"G","ISLES-LES-MELDEUSES","3.007121670847977","48.99798873657706"
"G","BITSCHWILLER-LÈS-THANN","7.07825223339086","47.82770586464642"
"G","MAXILLY-SUR-SAÔNE","5.407259792697873","47.31333665292014"
"G","SAINT-AUBIN-DES-LANDES","-1.322347292655554","48.109081657042296"
"G","NOVY-CHEVRIÈRES","4.463417712599302","49.52262777832305"
"G","CHASSE-SUR-RHÔNE","4.79513821411874","45.58260136129138"
"G","NOISY-LE-SEC","2.460337205225169","48.89666960212315"
"G","LANGRES","5.339536560101138","47.88011312153019"
"G","WALLERS","3.393640834061122","50.38458898670618"
"G","CRESSAT","2.030919125050327","46.123836220898106"
"G","AUTERIVE","1.468589831135334","43.34889289615026"
"G","LUSSAC-LES-CHÂTEAUX","0.71857024733858","46.405233047183636"
"G","EURVILLE-BIENVILLE","5.044745010027194","48.58231410602889"
"G","SAINT-LÉGER-SUR-DHEUNE","4.628441766449198","46.848425175627916"
"G","VALLEIRY","5.967015737253917","46.109430451220014"
"G","LIGNY-EN-BARROIS","5.320682798507518","48.686085862218626"
"G","SAINT-SEVER-DE-SAINTONGE","-0.5266408352969405","45.70105347470961"
"G","AIMARGUES","4.208741750869569","43.67865141363299"
"G","SÉNAS","5.073227644115169","43.74089310906697"
"G","PINON","3.446249370031461","49.494505097628675"
"G","GUICHEN","-1.7546994035642285","47.95314781823232"
"G","BEUZEVILLE","0.351767748483088","49.34084248565304"
"G","AIGUEBELETTE-LE-LAC","5.813156640721789","45.53622016446212"
"G","ARQUES-LA-BATAILLE","1.134240760589963","49.8806417534455"
"G","FONS","4.20674139775482","43.9072610264125"
"G","PRÉMERY","3.332931459801157","47.171232922615985"
"G","FECAMP","0.373905831468864","49.75946346406018"
"G","LE THEIL-DE-BRETAGNE","-1.432154987081759","47.91872784258159"
"G","CELLE-SAINT-CLOUD (LA )","2.135180841856355","48.84845296158046"
"G","SAINTE-LÉOCADIE","2.010769165615426","42.441308040980225"
"G","GRENOBLE","5.716516078140732","45.18646995140077"
"G","SAINT-AUNÈS","3.963258236281296","43.63539371862417"
"G","MOUROUX","3.044047451591068","48.81347015023518"
"G","ETAPLES","1.6430524412592908","50.516742096597326"
"G","MARIGNAC","0.651983192271137","42.91546574727395"
"G","PERIGUEUX","0.7142805122247949","45.18661096889149"
"G","SAINT-JEAN-PIED-DE-PORT","-1.238621645776675","43.168113297949574"
"G","SAUJON","-0.930419852300245","45.66696039861186"
"G","ÉTAIS-LA-SAUVIN","3.344528456693853","47.498666659413956"
"G","LES LOGES-EN-JOSAS","2.146851066296696","48.77040097495269"
"G","VIMY","2.822992264507032","50.373211284082856"
"G","CHÉZY-SUR-MARNE","3.364692973125201","48.99193535604067"
"G","THORIGNY-SUR-MARNE","2.70396715179194","48.88211331373947"
"G","LE MOLAY-LITTRY","-0.881589184516523","49.24920849297646"
"G","URMATT","7.325871472420516","48.52522718150048"
"G","BLOIS","1.3240905056577146","47.59192354120305"
"G","NIORT","-0.4600889579348165","46.312487683861995"
"G","LAISSAC","2.82231186388015","44.3750538540899"
"G","PONT-DU-CASSE","0.675933092816244","44.232824610550935"
"G","LA VOULTE-SUR-RHÔNE","4.783697991645013","44.80585230933447"
"G","BOURBOURG","2.195861554347714","50.95273042792849"
"G","ALBERTVILLE","6.379360777570438","45.671779055556264"
"G","BONS-EN-CHABLAIS","6.36796561244969","46.2695472254679"
"G","SEUGY","2.398158008359361","49.118901164745715"
"G","BATILLY","5.971846345350173","49.16633828912713"
"G","FONTAINEBLEAU","2.762318803658344","48.394401706465494"
"G","EPFIG","7.450428471070055","48.36371868266161"
"G","SAINT-CYPRIEN","1.043594147913342","44.86332595028344"
"G","FRANOIS","5.934679207397002","47.22650400676816"
"G","NICE","7.2686626727456485","43.70411803018353"
"G","PROUVY","3.460371038150174","50.31660652353213"
"G","PONT-DE-CLAIX (LE )","5.700137857147273","45.124556547623314"
"G","BAUVIN","2.90504075604601","50.51167305704527"
"G","MOULIS-EN-MÉDOC","-0.74467050609378","45.08398014047938"
"G","PORT-SAINTE-MARIE","0.3889219012286845","44.25046062385378"
"G","BÉLIGNEUX","5.124313081373071","45.84898731573564"
"G","SAINT-MALO","-2.004051313466777","48.6465302973296"
"G","CUINCHY","2.74371760990485","50.52217060298634"
"G","VIRY-NOUREUIL","3.250090386626722","49.62730354937344"
"G","LA MEILLERAIE-TILLAY","-0.814155696992413","46.75251044463558"
"G","ISSOIRE","3.254208169172224","45.54410777430989"
"G","BRÉE","-0.551311716419074","48.14128715232236"
"G","SABLES-D'OLONNE (LES)","-1.781633342822514","46.500180558548664"
"G","CHOISY-LE-ROI","2.4116726590961033","48.763162649161984"
"G","FOUILLOY","1.82549203212016","49.73641873820521"
"G","NÉRONDES","2.822584798594397","46.99953593667295"
"G","QUÉMÉNÉVEN","-4.085804996612713","48.11563521669611"
"G","TERGNIER","3.296370238694744","49.65821074982189"
"G","MÉRICOURT-L'ABBÉ","2.5568906367480104","49.94980936726169"
"G","LE CENDRE","3.188612056172235","45.72393096751502"
"G","MÉZÉRIAT","5.046778286049959","46.234982852558495"
"G","ARQUES","2.3022277557770576","50.72793001728267"
"G","JURANCON","-0.378991277654811","43.28580945036737"
"G","NAMPS-MAISNIL","2.105280731925284","49.808146221661694"
"G","JOUY-EN-JOSAS","2.177761952955298","48.76200471562812"
"G","CLICHY","2.297659068216909","48.897905088103315"
"G","PLANCOËT","-2.228808444008036","48.52143574734171"
"G","VAULRY","1.109087939398972","46.02476599958137"
"G","COLLONGES-LÈS-PREMIÈRES","5.266038309599982","47.22091902769564"
"G","MENNECY","2.433268053440552","48.57113280817187"
"G","CLERMONT-LES-FERMES","3.94030338978631","49.662228873623384"
"G","THIONVILLE","6.17073798330849","49.353913905851876"
"G","MASSIAC","3.196485121914399","45.2537520440839"
"G","CHAUMONT-EN-VEXIN","1.87274012538591","49.26122040204954"
"G","PEYRILHAC","1.170073031698384","45.959766122719756"
"G","AIME","6.648695374200575","45.55439650743767"
"G","FEIGNIES","3.922118667724535","50.306199581174766"
"G","ORGON","5.045608936052143","43.785728417650475"
"G","ESVRES","0.781573759630258","47.28412187786619"
"G","AY","4.001620866305724","49.04868676712236"
"G","LE MESNIL-AMELOT","2.570035507097067","49.0085079715308"
"G","TAMNAY-EN-BAZOIS","3.723548553605094","47.053345149186804"
"G","MONTCORNET","4.016382371029833","49.69788469745514"
"G","GARDANNE","5.464791194897561","43.458194899832954"
"G","BIACHE-SAINT-VAAST","2.940997644790628","50.316280109440925"
"G","VILLENAVE-D'ORNON","-0.547484541103758","44.76865260947629"
"G","ANDELOT-EN-MONTAGNE","5.922173338115077","46.859017419932364"
"G","VAREN","1.886266293554495","44.142185505430454"
"G","FLERS","-0.573534215608868","48.7443263394735"
"G","DOMÈNE","5.829111418584144","45.201642077395775"
"G","L'HERMITAGE","-1.81921151526776","48.123335774611554"
"G","WIZERNES","2.229123687212228","50.70531256788087"
"G","BETTON","-1.634223144594651","48.181400267622394"
"G","POLISOT","4.384352001331836","48.07309328540291"
"G","GERZAT","3.143096869688812","45.833312882972244"
"G","ERSTEIN","7.638508175326063","48.42329588472855"
"G","GEISPOLSHEIM","7.6875631216418485","48.527070867264904"
"G","BELLEGARDE-SUR-VALSERINE","5.82517327644508","46.11202804761044"
"G","SÉZANNE","3.728680545725169","48.714580827304744"
"G","MOTTEVILLE","0.8478244113871225","49.63674771965239"
"G","MUTZIG","7.462406503086941","48.533593276976994"
"G","HAGETMAU","-0.583487362867767","43.65924203793236"
"G","HOMBOURG-HAUT","6.77429829221759","49.12615707140362"
"G","SAINT-REMY-EN-L'EAU","2.426086461191058","49.468631616410335"
"G","LA FOREST-LANDERNEAU","-4.307191186412101","48.42635046201861"
"G","RILLY-LA-MONTAGNE","4.040905519057281","49.16647916815051"
"G","BEAUMONT-LE-ROGER","0.772899412138306","49.07417134918095"
"G","AMIFONTAINE","3.910682169327863","49.484696626763025"
"G","BLANZAY","0.23583521002164","46.226901878970985"
"G","SEPTEMES-LES-VALLONS","5.369992482206597","43.403064809469726"
"G","RONCHIN","3.084311372220643","50.60966845574419"
"G","HARFLEUR","0.195621403002706","49.50981440761349"
"G","COMPIEGNE","2.866856825339293","49.41916746485717"
"G","CHELLES","2.582709500637213","48.87414942148909"
"G","COURCELLES-SUR-NIED","6.310989071505479","49.06348880498309"
"G","FAINS-LA-FOLIE","1.647699524798858","48.223742482299464"
"G","ANNEMASSE","6.2372607233522634","46.19997460266743"
"G","SEPT-SAULX","4.256996396193811","49.15113148626445"
"G","SAINT-PRIEST","4.922997843927495","45.69104551559997"
"G","BONNEMAIN","-1.765085143486323","48.47629730968967"
"G","LOURDES","-0.041835576057204","43.100576605175455"
"G","MONT-SAINT-MARTIN","5.786127115687368","49.53486117639584"
"G","ÉPÔNE","1.8098753685442386","48.96334833658264"
"G","AIGUEBELLE","6.306820208917644","45.543891485387576"
"G","ISLE-SUR-LA-SORGUE (L' )","5.047518472991605","43.91716989770138"
"G","JOIGNY","3.391311397077373","47.973404150236945"
"G","LOUHOSSOA","-1.362398085576867","43.30568083956216"
"G","ANSE","4.719886003240322","45.939355674976504"
"G","MONTREUIL-JUIGNÉ","-0.617520099104478","47.52540333074923"
"G","BONDY","2.4806133163988378","48.8937215549297"
"G","LA SOUTERRAINE","1.490691444529265","46.241740737278604"
"G","LISIEUX","0.2297733286320367","49.142517666114436"
"G","VALLORCINE","6.926716184438594","46.02578649727171"
"G","SAINT-RAPHAEL","6.848321806561958","43.433129322680905"
"G","MARLE","3.769775758735288","49.74709563824541"
"G","FERRIÈRE-LA-GRANDE","4.000900568769875","50.25451274873495"
"G","MERY-SUR-OISE","2.190803921925722","49.05742573932811"
"G","COUERON","-1.723455787961951","47.2219940667114"
"G","ORCHAMPS","5.659073708425584","47.15019791017116"
"G","MAGLAND","6.621201466016067","46.016930329818535"
"G","USSEL","2.314468195874998","45.557468511900595"
"G","BARTENHEIM","7.487634905148902","47.63490670376327"
"G","TRIEL-SUR-SEINE","2.006151763273637","48.98092617764641"
"G","CASTELNAU-D'ESTRÉTEFONDS","1.3407935012277","43.78699582428723"
"G","FEUQUIÈRES","1.831081547173298","49.654510544147485"
"G","MORHANGE","6.659189552261831","48.936755008072495"
"G","ÈZE","7.35711284897388","43.72222526964108"
"G","LOUARGAT","-3.322777659728402","48.59356255918787"
"G","EPINAY-SUR-ORGE","2.331737433106429","48.67238538300926"
"G","SAINT-DIZIER","4.953301355560804","48.6410783173715"
"G","MITRY-MORY","2.6225985763396267","48.96442380226028"
"G","LAVAUFRANCHE","2.270730252701328","46.32221404140112"
"G","NEUSSARGUES-MOISSAC","2.9787150079631446","45.12517078028937"
"G","VIROFLAY","2.1738497599241327","48.80156889813836"
"G","TINCQUES","2.498152415554895","50.35701988330707"
"G","ROMORANTIN-LANTHENAY","1.739676212602183","47.36154083016146"
"G","SAINT-PATRICE","0.309739375073303","47.28552890833406"
"G","MOUCHARD","5.800608758539159","46.976225500571445"
"G","ORTHEZ","-0.76708837450482","43.48404366526758"
"G","GRANDVILLARS","6.978583696399005","47.53771038419882"
"G","GIMONT","0.867583714386745","43.63309623244655"
"G","ARNOUVILLE-LES-GONESSE","2.417110370855272","48.994495033295564"
"G","MONTBIZOT","0.190914668124834","48.15133012551761"
"G","AMBAZAC","1.408664883191938","45.9537576316964"
"G","NAJAC","1.976477863897994","44.22243921196413"
"G","VAUCRESSON","2.152457655505388","48.836743107448"
"G","NÉGRONDES","0.861241304907747","45.3458918137541"
"G","LONS-LE-SAUNIER","5.547354304190532","46.668766103666776"
"G","SAINT-PIERRE-DES-CORPS","0.723720808528266","47.38543422815731"
"G","OSSÉJA","1.977066179295433","42.41992974629941"
"G","JOUE-LES-TOURS","0.662276905036807","47.34912049537073"
"G","LE PONT-DE-BEAUVOISIN","5.68069980711602","45.52445093925393"
"G","FONTENOY-SUR-MOSELLE","5.981240576927045","48.71242321001076"
"G","DORMANS","3.641732540154304","49.079124214613664"
"G","CINQ-MARS-LA-PILE","0.460452261139511","47.345053921069486"
"G","SALINDRES","4.153212090320837","44.173128489576094"
"G","COUFFOULENS","2.316895616554444","43.15519722029429"
"G","COURVILLE-SUR-EURE","1.234883400233006","48.451589637236474"
"G","LURBE-SAINT-CHRISTAU","-0.60561423206694","43.12021264473371"
"G","CASTELSARRASIN","1.1145197093986754","44.04038559783136"
"G","HÉMING","6.971237167224244","48.69169925460745"
"G","CLERMONT-FERRAND","3.1078276251401524","45.7750976745483"
"G","SAINT-ARMEL","-1.594854775231689","48.01416047020141"
"G","PONT-MELVEZ","-3.292530031750071","48.47527423037441"
"G","BRENS","5.695334386379873","45.731196348519326"
"G","NÉRAC","0.335359781908443","44.131422915511294"
"G","LUTTERBACH","7.277422777983532","47.75792926748742"
"G","VILLARD-BONNOT","5.8910963935349745","45.248518136033695"
"G","TIEFFENBACH","7.255222037197649","48.90631229003307"
"G","DOUZILLAC","0.417067509018416","45.079332312145596"
"G","LE MERLERAULT","0.283314238294342","48.702520171465096"
"G","MÉZIN","0.248974597042553","44.05928473340328"
"G","AIRE-SUR-L'ADOUR","-0.256344052110299","43.707238775840736"
"G","CERCY-LA-TOUR","3.6449898843239152","46.85775498514117"
"G","LURE","6.487568523040537","47.68332649123912"
"G","SAINT-GERMAIN-EN-LAYE","2.0782753949158774","48.9178148868534"
"G","NARBONNE","3.008791880130252","43.193215692623134"
"G","BEAUNE","4.848573032292899","47.022702194436846"
"G","CHARLEVILLE-MEZIERES","4.729356253626792","49.76032626031499"
"G","LA BOUTEILLE","3.982780234602766","49.860132006253636"
"G","MONTIGNY-SUR-LOING","2.738557831181098","48.33644815329423"
"G","CHATEAUROUX","1.696767513919584","46.808233220620224"
"G","DIE","5.362579975522965","44.75837755770769"
"G","AVESNES-SUR-HELPE","3.933691932159471","50.126510256624066"
"G","NEUVES-MAISONS","6.108451997063195","48.61484762131259"
"G","SAINT-CHRISTOPHE-VALLON","2.407610849837567","44.464663823504566"
"G","LE MUY","6.57342574458219","43.47030445389205"
"G","SURESNES","2.221062051357459","48.87168355309941"
"G","AMPLEPUIS","4.327214356097621","45.97049539768586"
"G","AIFFRES","-0.4220816922951245","46.282861710941546"
"G","CHÂBONS","5.428172701615482","45.43768770216143"
"G","LUCE","1.453018308838864","48.43670752102672"
"G","FELLERING","6.992354690324483","47.893798244290736"
"G","SAINT-VALERY-EN-CAUX","0.713109260451779","49.861065495885484"
"G","DINAN","-2.053387664537875","48.45702207710471"
"G","PIHEN-LÈS-GUÎNES","1.785914545081654","50.87315580206877"
"G","TRIGNAC","-2.193093149763181","47.300613475379876"
"G","MERU","2.1323187163077","49.23247991646353"
"G","CHAMPTOCÉ-SUR-LOIRE","-0.870480106704938","47.41034143099891"
"G","NOYERS-PONT-MAUGIS","4.960437219350617","49.668304596629945"
"G","NANTIAT","1.156383699422615","46.00562135984305"
"G","ARTENAY","1.882903505095287","48.079727167817424"
"G","LILLE","3.063374187817866","50.62742964275518"
"G","ESCHES","2.170617493219589","49.21248581843525"
"G","DOMFRONT-EN-CHAMPAGNE","0.02615649626639","48.10776080791002"
"G","VALENCE","2.8925450492419826","44.51984385461596"
"G","SAINT-BRICE-SUR-VIENNE","0.952252729453219","45.87811742813138"
"G","SUÈVRES","1.454682135115395","47.680632998722544"
"G","ÉCUISSES","4.500111834654999","46.765214479645465"
"G","CERBÈRE","3.164658104570377","42.44222906253806"
"G","MOREUIL","2.475453542153178","49.777092276970436"
"G","PORT-DE-PILES","0.597716162970792","47.00545089066897"
"G","MONTDIDIER","2.5628212972297852","49.64149082661524"
"G","VONNAS","4.991896805339235","46.227242116261685"
"G","SAINT-MARS-LA-BRIÈRE","0.365764787326713","48.028684482990606"
"G","CHALONNES-SUR-LOIRE","-0.743796705302478","47.34278743126005"
"G","CHAINGY","1.78236689604965","47.87701691083584"
"G","SORCY-SAINT-MARTIN","5.669522404973221","48.71756010209895"
"G","MARGUT","5.257332839814516","49.59070957115903"
"G","CLAYES-SOUS-BOIS (LES)","1.992449549946879","48.82400399347824"
"G","ESPÉRAZA","2.218243348973476","42.9357975616576"
"G","MÉRIEL","2.205014084606336","49.0772421084486"
"G","BELFORT","6.852369784916392","47.63594420809135"
"G","LE BOULOU","2.834270178232119","42.528455005103794"
"G","BEAUNE-LA-ROLANDE","2.419689053409047","48.07320338481968"
"G","SANTENAY","4.701780086185652","46.91073433226832"
"G","ELNE","2.963403344391779","42.59729113552575"
"G","SAINT-MAURICE-DE-BEYNOST","4.976803928916588","45.827259754287724"
"G","SAINT-ANDRE-LEZ-LILLE","3.048639591167611","50.65479497401948"
"G","VICHY","3.431338488848985","46.12581185271214"
"G","METZ","6.175601828982709","49.114820573123055"
"G","EVRY","2.444102729422744","48.62795986534422"
"G","LIMOUX","2.2208184824319215","43.062462128620425"
"G","VILLENEUVE-SAINT-GEORGES","2.4424237075261415","48.73844824854238"
"G","ESCAUDOEUVRES","3.276361665143941","50.192348953741444"
"G","GUILLAUCOURT","2.634820287609759","49.8450059798228"
"G","VIENNE","4.871205483636725","45.530553505504514"
"G","WIMILLE","1.613739796070267","50.764180866760626"
"G","TERMINIERS","1.700330460336401","48.08956697136819"
"G","PUYOÔ","-0.9096073052149664","43.52433278561733"
"G","MERREY","5.599516022996133","48.05641448708048"
"G","LANDIVISIAU","-4.08292718584242","48.49577732549493"
"G","MACON","4.807037031638598","46.29312327206049"
"G","ROISSY-EN-BRIE","2.650477016233284","48.79562254504369"
"G","MOMMENHEIM","7.642595191364613","48.755593518091004"
"G","MUIZON","3.891856462971211","49.27821387661403"
"G","DINGÉ","-1.68583203080833","48.350707672331545"
"G","MESSEIN","6.137640767250031","48.61299997287908"
"G","SAINT-JULIEN-PUY-LAVÈZE","2.704853505428261","45.647048413768054"
"G","COURSAN","3.051424567513112","43.234194538795116"
"G","SAINT-SULPICE-LAURIÈRE","1.4765250472835576","46.047094193535784"
"G","BOURGES","2.405402587958668","47.10683611302102"
"G","ARNÈKE","2.408173440631014","50.83081761670071"
"G","TROYES","4.064917895591246","48.29576700034289"
"G","DREFFÉAC","-2.049996132974796","47.482266599289616"
"G","MONTREUIL","1.769017904748211","50.46637341957389"
"G","LOOS","3.016580779523829","50.6127400445533"
"G","ASPRES-SUR-BUËCH","5.75453508836726","44.519131381171405"
"G","VOREPPE","5.632502398249643","45.2897933085749"
"G","SAINT-ANTOINE-DE-BREUILH","0.151863918405835","44.84669421977345"
"G","CAP-D'AIL","7.394093476592502","43.72061321511636"
"G","SEVRAN","2.523398082680425","48.935123557334"
"G","MARCK","1.952454709932628","50.94543435472032"
"G","VAYRES","-0.316121575383884","44.89662081694384"
"G","BAGNÈRES-DE-LUCHON","0.596736402237768","42.79727275671695"
"G","CHÂTEAUNEUF-SUR-CHARENTE","-0.050141989389213","45.5998615968412"
"G","MOURIOUX-VIEILLEVILLE","1.6726400763685125","46.09006504682077"
"G","BATZ-SUR-MER","-2.479068344361024","47.280949556005034"
"G","SAINT-JULIEN-LES-VILLAS","4.092511703806048","48.26878337767435"
"G","VINÇA","2.526939017959618","42.64773531675156"
"G","UR","1.940466997147396","42.45747121161789"
"G","VIF","5.684618223037262","45.047838001650575"
"G","MARGIVAL","3.403042008228536","49.4392231315949"
"G","CEYZÉRIAT","5.325714964198832","46.183333329044686"
"G","PLUNERET","-2.960580973303574","47.67850522991184"
"G","BLODELSHEIM","7.52360176537168","47.88626934854276"
"G","SAINT-ETIENNE-DU-ROUVRAY","1.109585806286143","49.3771268079681"
"G","SAINT-BONNET-DE-MONTAUROUX","3.742013580195539","44.8378407627591"
"G","USTARITZ","-1.4467921632804814","43.39783565745468"
"G","ÉPERLECQUES","2.207772910280331","50.82578985957985"
"G","MONDOUBLEAU","0.892337520623995","47.98426119421903"
"G","RIXHEIM","7.397817297270015","47.75177969521266"
"G","SAINT-RABIER","1.160167553540784","45.15108062574905"
"G","SIN-LE-NOBLE","3.10916966747073","50.3573152220434"
"G","CHAMOUSSET","6.205764858371875","45.55752505792151"
"G","CLONAS-SUR-VARÈZE","4.772085768522904","45.414602966326804"
"G","LABARTHE-INARD","0.852120223057593","43.10495985564873"
"G","BIDARRAY","-1.345006276118196","43.268029277393474"
"G","BOUSSAY","-1.18280159699083","47.05058005563971"
"G","BEAUVOIR-SUR-NIORT","-0.468771957598848","46.17676200989479"
"G","TILLIÈRES-SUR-AVRE","1.054569707633561","48.76084521157426"
"G","PLOUHARNEL","-3.1254131340953757","47.58977519474577"
"G","SAINT-JUÉRY","2.203338211429495","43.94293971296417"
"G","SAINT-PIERRE-DE-CHIGNAC","0.85708060093846","45.12347104277347"
"G","CARENTAN","-1.242069292807631","49.30175533362343"
"G","BEUVRAGES","3.5057309160770944","50.39026515957764"
"G","BELVÈS","1.011886496766323","44.77737490838677"
"G","LA CELLE-SAINT-AVANT","0.5984265437757335","47.013175581485626"
"G","JARVILLE-LA-MALGRANGE","6.200490901578103","48.67110324567642"
"G","LA GUIERCHE","0.193217777167323","48.11405392276398"
"G","LÉPANGES-SUR-VOLOGNE","6.672321134908765","48.17273700973926"
"G","AVRICOURT","6.804840515668056","48.64634201852442"
"G","MESVES-SUR-LOIRE","3.00650889658292","47.242133845059584"
"G","ARZEMBOUY","3.380930533420509","47.25245295692108"
"G","BOUAYE","-1.681009432067846","47.137978792687676"
"G","DAMELEVIÈRES","6.388300761211532","48.56385504569588"
"G","CANTIN","3.121752682520115","50.31240554714561"
"G","TALENCE","-0.59966761640612","44.816601952589444"
"G","VRAINCOURT","5.123890814608322","48.23687562456275"
"G","MONTREUX-VIEUX","7.026212962770893","47.618038564834976"
"G","LE CHÂTEAU-D'ALMENÊCHES","0.13455200831057","48.665021939337265"
"G","TOUL","5.8805286587960275","48.67936344184428"
"G","PRINGY","6.123324352280298","45.939507466677064"
"G","LUMES","4.783240563825568","49.73298159988859"
"G","HENNEBONT","-3.285620464546827","47.7990553530428"
"G","GIRONCOURT-SUR-VRAINE","5.921475513700222","48.31045388262746"
"G","IWUY","3.330420094018675","50.226267859212776"
"G","CRUAS","4.765580021583682","44.655900465849584"
"G","BIGANOS","-0.966206293149982","44.63717129178578"
"G","YUTZ","6.20959781720118","49.3611457256616"
"G","ALLENC","3.664130358302335","44.54152103116181"
"G","NOYEN-SUR-SARTHE","-0.098482265667813","47.87467624834712"
"G","BELLENAVES","3.06661488746179","46.1993421123937"
"G","VILLEFRANCHE-SUR-SAONE","4.721077121771563","45.984560816448536"
"G","DACHSTEIN","7.566239496050476","48.54543654154971"
"G","LA BÂTHIE","6.445180692376851","45.63024323974924"
"G","LILLERS","2.479393393503667","50.56097959829487"
"G","VENISSIEUX","4.888899756674495","45.704811666744185"
"G","GUÉTHARY","-1.609869139610882","43.42532742825411"
"G","BUTRY-SUR-OISE","2.2014844497269523","49.090424183816374"
"G","COLOMBES","2.2525743567055896","48.919242496247975"
"G","CHAVILLE","2.1885414372453735","48.808475715824066"
"G","PONT-DE-ROIDE","6.766646182060988","47.38318933023025"
"G","LESCAR","-0.436017112433203","43.32410519020501"
"G","ÉPOISSES","4.179052846582437","47.502360001523215"
"G","ROYÈRES","1.440621823063056","45.86376773206017"
"G","GISORS","1.7865228054265956","49.28409048021368"
"G","SAINT-HILAIRE-DE-VILLEFRANCHE","-0.534862134197627","45.850163946574924"
"G","SAINT-LOTHAIN","5.643810199795414","46.82310722917793"
"G","GONDEVILLE","-0.177767829814888","45.671115928219415"
"G","DRUYE","0.533822558376341","47.30636201128594"
"G","BAYEUX","-0.698300893971391","49.26958107576529"
"G","LA BASSÉE","2.804054051519795","50.52746595501221"
"G","LA FERTÉ-ALAIS","2.352035820662094","48.48477733181462"
"G","SOUVIGNY","3.190404924894053","46.531259378140156"
"G","BRIONNE","0.711468824285941","49.19643355316075"
"G","SUCY-EN-BRIE","2.5077607686505057","48.771389126401935"
"G","MAMIROLLE","6.162296002500971","47.20018021278925"
"G","LOUBEJAC","1.04915995461857","44.62695178117865"
"G","CRESPIN","3.6609064520243217","50.4048110539385"
"G","CAHORS","1.4351663871218885","44.44394622963016"
"G","SAINT-GERMAIN-SUR-AVRE","1.256292124313499","48.758914576709124"
"G","BOURTH","0.804607667477101","48.765711871348856"
"G","CHAMALIERES","3.061641533997026","45.76773767177134"
"G","LA FRESNAIS","-1.843170060832675","48.59366306337683"
"G","VALENCIENNES","3.5171682028594176","50.364292525208135"
"G","ÉTIGNY","3.290101250941349","48.1385252622032"
"G","BAYONNE","-1.472824958696289","43.489806690317835"
"G","JARDRES","0.560320283222388","46.56353108511348"
"G","NOMAIN","3.218866328312834","50.504314638161716"
"G","SÉVÉRAC","-2.072787144848598","47.54983414389597"
"G","SAINT-PÉRAY","4.850547552231502","44.947842962255294"
"G","BESSINES-SUR-GARTEMPE","1.377068005413378","46.12659603149818"
"G","SAINT-CYR-EN-VAL","1.947655298634261","47.81990993370836"
"G","XERTIGNY","6.37677531207038","48.052717772071084"
"G","LIMEYRAT","0.977756121929915","45.15624949745528"
"G","NEUVILLE-SUR-OISE","2.078363401418651","49.014391328537435"
"G","HOFFEN","7.933334342280364","48.93122038223287"
"G","GANNAT","3.204755319490847","46.10045536013968"
"G","AIX-EN-PROVENCE","5.377410810531018","43.489940752897546"
"G","ANOR","4.093069652614456","49.984914238308946"
"G","VERGÈZE","4.219113329716423","43.73977946287461"
"G","NOUAN-LE-FUZELIER","2.032486736734839","47.53653451674211"
"G","CORBEILLES","2.551283001492116","48.066084769647986"
"G","FRÉTEVAL","1.211608068881622","47.891918788893165"
"G","AVENAY-VAL-D'OR","4.043516282016268","49.06469230378641"
"G","FONTAINES","4.77523537954581","46.85120280986514"
"G","SAINT-AGNAN","3.879207864973599","46.50146020099201"
"G","PEILLON","7.366860146547884","43.7679262437941"
"G","AIGUES-VIVES","4.193652120549475","43.72672439839998"
"G","JUVISY-SUR-ORGE","2.382102261718599","48.68887021260029"
"G","MORTCERF","2.907528503637124","48.789121503903154"
"G","BOBIGNY","2.4308253465887955","48.91072315840615"
"G","BELLEVILLE","5.415286527452748","47.46566807718965"
"G","TETING-SUR-NIED","6.66473128304083","49.05171884960215"
"G","MONTELIMAR","4.744565283791178","44.55896224752883"
"G","WACQUEMOULIN","2.611669730158165","49.50289085206648"
"G","BRIENNE-LE-CHÂTEAU","4.531933887635915","48.39247766825821"
"G","PENNE-D'AGENAIS","0.8009387635275945","44.378319231393895"
"G","METZERVISSE","6.283707555699446","49.31802563972744"
"G","SAINT-PIERRE-D'ALBIGNY","6.156333740100027","45.557165151897564"
"G","VAUX-SUR-SEINE","1.963181108519656","49.00727114981752"
"G","SENNECEY-LE-GRAND","4.87453569580977","46.640641464084545"
"G","ROPPENHEIM","8.05980690889564","48.849608768501895"
"G","BIÈVRES","2.215591467179212","48.751232547120566"
"G","HONNECHY","3.456325308770227","50.06737244204346"
"G","SURBOURG","7.831675226651149","48.91627697145677"
"G","GARDE (LA )","6.028069408729227","43.13187235740236"
"G","SAINT-LAURENT-SUR-MANOIRE","0.808307981501079","45.13838581046404"
"G","DOMBLANS","5.59759784914124","46.76208285779334"
"G","MEURSAULT","4.795351885797311","46.968865014056945"
"G","MISEREY-SALINES","5.963636396251362","47.2858209149037"
"G","BOURGET (LE )","2.426674011457214","48.93079100023168"
"G","PONT-SAINTE-MAXENCE","2.602856468438373","49.309988250616065"
"G","POMAS","2.288294870421237","43.11218352513804"
"G","MUNSTER","7.143570303957521","48.03862197395745"
"G","MOULINS","3.339184600895671","46.56123451905579"
"G","MENNESSIS","3.270278137093229","49.692060008678006"
"G","WITTRING","7.140819812049893","49.055958481804154"
"G","SAVENNIÈRES","-0.654527295045953","47.38152499451488"
"G","NIEPPE","2.828925131352782","50.696711008422795"
"G","LE HOULME","1.0367126385618044","49.51796150449442"
"G","ROUEN","1.0925855684109635","49.44158368981289"
"G","PLAINTEL","-2.821955431776187","48.435446319606385"
"G","JEANDELIZE","5.788966385138067","49.16357419821692"
"G","POUSSAY","6.1266174313527","48.322426689027516"
"G","BASSENS","-0.522430323462198","44.900801828644916"
"G","MALANSAC","-2.295341097594994","47.67554186869083"
"G","POIX-TERRON","4.636807636125961","49.650586484650105"
"G","LIZY-SUR-OURCQ","3.031864920341824","49.02179218810581"
"G","NOUVION-SUR-MEUSE","4.795018999514381","49.69710359367767"
"G","LAGNIEU","5.349728421132768","45.90752231744008"
"G","FISMES","3.682512960005394","49.31092384327646"
"G","SIMIANE-COLLONGUE","5.42581853515434","43.434732270962705"
"G","SAINT-SEVER-CALVADOS","-1.051643849945736","48.84362836466454"
"G","LA VILLE-DIEU-DU-TEMPLE","1.215038302805089","44.03545953997265"
"G","OIRY","4.039245065493115","49.02760216648134"
"G","BEUVRY","2.690170519981582","50.536145203422166"
"G","LUXÉ","0.109284793647745","45.88729558439641"
"G","BOIGNEVILLE","2.379038997367991","48.34215966984908"
"G","PONTGIBAUD","2.845794809271947","45.82094297808272"
"G","CHAMBLY","2.2497040899546867","49.1622303769104"
"G","SAINT-JULIEN-EN-GENEVOIS","6.085473821494126","46.141913343428044"
"G","LOISY-SUR-MARNE","4.540436905103517","48.75913519070328"
"G","SAINT-AMAND-LES-EAUX","3.4158582102601804","50.4445606621961"
"G","VILLABÉ","2.461828319020637","48.59264620198872"
"G","BREUIL","3.766878024994296","49.308381394703375"
"G","BAR-LE-DUC","5.167193337889746","48.77367615307599"
"G","VERNEUIL-SUR-SERRE","3.666258428826686","49.647028116243916"
"G","INGRÉ","1.834854970344462","47.93445198846802"
"G","CHANTELOUP-LES-VIGNES","2.027502235521161","48.97035209098213"
"G","ROANNE","4.06306753627084","46.03936961727752"
"G","LIMAY","1.747299431394006","48.984242390536664"
"G","MARNES-LA-COQUETTE","2.186634102929027","48.837950561666695"
"G","CANNES","6.987029760124334","43.55141110216897"
"G","VILLENEUVE-LOUBET","7.134308892748472","43.6295556593794"
"G","MOTHERN","8.161849013795889","48.934930651836964"
"G","MEYRARGUES","5.539284286572694","43.644079505354135"
"G","COLMAR","7.3443345884181195","48.07778914043548"
"G","VINDRAC-ALAYRAC","1.899679182556303","44.067784595852196"
"G","FOUDAY","7.187395299204552","48.42524781296892"
"G","FRONTIGNAN","3.75895970261544","43.444883389821115"
"G","VERNAISON","4.813521758992947","45.645514011538495"
"G","GAMBSHEIM","7.879260591137476","48.69510389748331"
"G","LESQUIN","3.118755929274787","50.589998491922394"
"G","PLEYBER-CHRIST","-3.883086229756259","48.50747856463624"
"G","LOISON-SOUS-LENS","2.85871245656636","50.43733161955527"
"G","LAROQUE-TIMBAUT","0.749741149561576","44.287500065429036"
"G","RAON-L'ÉTAPE","6.836859952448485","48.40373133965493"
"G","LES ORMES","0.607910383068543","46.971756371385645"
"G","REIGNAC-SUR-INDRE","0.901297777319716","47.21779355348433"
"G","VILLEREVERSURE","5.398158290281325","46.19451666097462"
"G","LA SUZE-SUR-SARTHE","0.02643990792454","47.89239849698498"
"G","SAINT-PIERRE-LE-VIGER","0.844717727716975","49.82396371063189"
"G","OBJAT","1.406828483895449","45.26471287539302"
"G","MOLINONS","3.547526386902263","48.2384166747683"
"G","MARIGNIER","6.506267431148229","46.08888626603907"
"G","LIBERCOURT","3.008776421585093","50.47955213929722"
"G","BOURGANEUF","1.757248815526985","45.95714880933643"
"G","LES SALELLES","3.279742536294395","44.48314521802582"
"G","ANCHAMPS","4.66991430394058","49.93076514927236"
"G","LAIZY","4.206993420666482","46.90848957594309"
"G","BACCARAT","6.744278755021462","48.4519963378768"
"G","MORCENX","-0.9084620895048495","44.033992307864104"
"G","ANZELING","6.459586407658986","49.2624167581957"
"G","BESSÉ-SUR-BRAYE","0.747761154517789","47.83021701314955"
"G","POLIÉNAS","5.473680116735924","45.25588485875957"
"G","VALLAURIS","7.072888905264846","43.56596165338044"
"G","MOREZ","6.023394053440845","46.526351946514154"
"G","MONÉTEAU","3.580031272750154","47.8507529836946"
"G","SAINT-BRICE-SOUS-FORET","2.36848907128339","48.99521236875985"
"G","AUBIGNÉ-RACAN","0.26594787595703","47.68701088602898"
"G","CRIMOLOIS","5.141650944935574","47.273042261850335"
"G","BOVES","2.372395217887013","49.85639400887758"
"G","DOMPIERRE-SUR-BESBRE","3.675343009355433","46.52641660175006"
"G","TRONSANGES","3.053982608953191","47.11312698272247"
"G","BRICY","1.777927377174516","47.99475427706965"
"G","COLLIOURE","3.078202792729514","42.52676701474552"
"G","ARGENTEUIL","2.2513062852032926","48.94819578523407"
"G","PONT-SAINT-VINCENT","6.103442518555855","48.60210347594136"
"G","MONT-DORE","2.804855040465586","45.57968837522159"
"G","ENSUÈS-LA-REDONNE","5.197596789801643","43.33435329028057"
"G","PIBRAC","1.289300755311082","43.6215242010746"
"G","BRETONCELLES","0.892461068029912","48.43275436557967"
"G","CESSON-SEVIGNE","-1.602579702384093","48.11257394590477"
"G","SAINT-VINCENT","3.918787654113014","45.1500603674364"
"G","LA FERTÉ-SAINT-AUBIN","1.931818657978464","47.7221918208981"
"G","TOURS","0.6951573134082277","47.388196705320006"
"G","CIVRY","1.479386702233253","48.065867887788364"
"G","SAINT-CASSIEN","5.535722965823849","45.36884047819984"
"G","GIGNAC","1.483080344936857","45.01449451742535"
"G","MONTBARTIER","1.264496752994648","43.924147822140164"
"G","ABBARETZ","-1.524313466657773","47.55546171193697"
"G","LE COUDRAY-MONTCEAUX","2.4860480319679867","48.56997172714772"
"G","MYENNES","2.93132553153053","47.45029414690045"
"G","PAIMPOL","-3.046020468525522","48.77663514565281"
"G","HAUTMONT","3.915571616258313","50.25397433616288"
"G","TRIE-CHÂTEAU","1.818143929978403","49.28265560153135"
"G","QUIBERON","-3.118160276976785","47.48560436515137"
"G","PARENT","3.216704735574016","45.61418782407018"
"G","LE QUESNOY","3.650296076989083","50.24878193331355"
"G","VILLENEUVE-SUR-YONNE","3.286346893591795","48.086090907944325"
"G","LOZANNE","4.682657449916794","45.8541115553092"
"G","PRÉCY-SUR-OISE","2.376953455328803","49.203501298737045"
"G","MANTES-LA-JOLIE","1.7098611204618985","48.98645349449162"
"G","MONTIGNY-LES-CORMEILLES","2.197940799961354","49.007331978947846"
"G","POUGNY","5.961218073642614","46.14477712415199"
"G","CARNOULES","6.186682773542319","43.29746760361852"
"G","PUILAURENS","2.313008818752499","42.81070782254279"
"G","MORIÈRES-LÈS-AVIGNON","4.908363202175189","43.94144966813656"
"G","CHAMPAGNÉ","0.336034717275254","48.01999207493511"
"G","SAINT-FÉLIU-D'AVALL","2.737890732080577","42.67731335432461"
"G","TRINITE (LA )","7.30702941593524","43.73859102833765"
"G","RIVE-DE-GIER","4.615809512378799","45.52693996199024"
"G","MONTGERON","2.460602648420521","48.709077058336696"
"G","LOULAY","-0.501680469534236","46.04344123732778"
"G","BAR-SUR-AUBE","4.707058954282401","48.23856610507349"
"G","PRUNAY","4.183760460727639","49.19871245335"
"G","BÉNESTROFF","6.751179375807439","48.90637738542873"
"G","MONTATAIRE","2.436213399898783","49.25117482036241"
"G","BOURNEZEAU","-1.177611060410453","46.651488845185106"
"G","LÉCHELLE","3.38309998559319","48.57953080812031"
"G","SAINT-JEAN-PLA-DE-CORTS","2.789188585370135","42.51604906438816"
"G","CHATILLON","2.302389503171902","48.808893775572265"
"G","CHINON","0.250971132208373","47.16222550109984"
"G","VAL-DE-REUIL","1.224844887249741","49.2755264557537"
"G","BARJAC","3.410793616996402","44.49938407314612"
"G","MÉRÉ","1.815590858818974","48.802738230652054"
"G","PARIS","2.3304214478185803","48.865569616882304"
"G","SAINT-ROMAIN-EN-GAL","4.864695170835149","45.52736492019606"
"G","GLOS-SUR-RISLE","0.682924958976584","49.27129116203309"
"G","COLLONGES","5.910622787322422","46.12803284722519"
"G","BRIMEUX","1.831495852912389","50.447051735242525"
"G","LIBOURNE","-0.235636933848964","44.91706875033546"
"G","SAINT-GILDAS-DES-BOIS","-2.044122473099628","47.51643540736758"
"G","LA FERTÉ-HAUTERIVE","3.3544931298736547","46.389548678775725"
"G","MAREUIL-SUR-OURCQ","3.075701654777109","49.13564457102928"
"G","ÉCOUFLANT","-0.5213356851839834","47.501236047430304"
"G","SOISY-SOUS-MONTMORENCY","2.29208498204663","48.97963342222922"
"G","CORDEMAIS","-1.846402868700538","47.30218811667678"
"G","ANTONY","2.3125795585876","48.74790944795252"
"G","CHEVILLY","1.879301673818937","48.026399150033626"
"G","ORS","3.626654190031645","50.10307653946187"
"G","CALLAC","-3.4006838661301977","48.41653410076142"
"G","GROSLAY","2.353836106473294","48.9844996702509"
"G","HAZEBROUCK","2.541608461495844","50.72516743755126"
"G","SEURRE","5.151257335475762","46.99638971386293"
"G","SAINT-AIGULIN","-0.019192014902316","45.1572333305456"
"G","MOVAL","6.889871237417865","47.58894842207403"
"G","CORBIGNY","3.677184737926491","47.25489222994257"
"G","CHENEVIÈRES","6.632746442850364","48.519523575847124"
"G","MANOIS","5.364701402401587","48.27418909909771"
"G","NOEUX-LES-MINES","2.674608644100998","50.483050291721256"
"G","HAM-EN-ARTOIS","2.466075551732472","50.589559825962844"
"G","VANNES","-2.752403881216251","47.66520979265519"
"G","MORANNES","-0.418122862095647","47.738861073425255"
"G","JONCHERY-SUR-VESLE","3.819584568195741","49.29000036950183"
"G","ASSAT","-0.294887990015388","43.25431105200619"
"G","LAVAVEIX-LES-MINES","2.089200138178173","46.07889918154853"
"G","SAUBUSSE","-1.190278050445025","43.66023352899588"
"G","FOUCART","0.597040774447286","49.60829267694682"
"G","SAINT-PIAT","1.590248880831111","48.54288412127952"
"G","DESVRES","1.846332148897643","50.665333856749584"
"G","ARNAGE","0.190168380795902","47.92854691202431"
"G","MARTIGNÉ-FERCHAUD","-1.313464368264538","47.83198913178169"
"G","LEYMENT","5.285127971080204","45.93647117289702"
"G","SAINT-ASTIER","0.523127789708187","45.1389632863265"
"G","CAUDRY","3.409086323027404","50.1113782514685"
"G","ANICHE","3.252851334014792","50.32873857188257"
"G","BROONS","-2.23584863546406","48.33337010660816"
"G","SAINT-AMAND-LONGPRÉ","1.011973870796805","47.69303595599551"
"G","COULOMBIERS","0.131795629906033","47.694801671810694"
"G","RENNES","-1.675171170281109","48.10442077035145"
"G","DIEMERINGEN","7.184958117319597","48.940900646744865"
"G","JUSSEY","5.902127813904649","47.83709918641037"
"G","DIARVILLE","6.126315067209317","48.397829059648124"
"G","TEILLÉ","0.191517320153433","48.1813892187838"
"G","LUSIGNAN","0.116562176116646","46.435540278870064"
"G","SAINT-GILLES-CROIX-DE-VIE","-1.941609608187195","46.696491785801165"
"G","STRAZEELE","2.630935112868321","50.71350179346863"
"G","ARLEUX","3.120835121863483","50.286342873500935"
"G","IMPHY","3.259411125784636","46.9323116784127"
"G","BÉTAILLE","1.734685916095342","44.942428775501945"
"G","GUDMONT-VILLIERS","5.140977831506596","48.33833971036188"
"G","PONTCHARRA-SUR-TURDINE","4.492874138246988","45.87150517812895"
"G","FOURMIES","4.053258190850368","50.01762492858143"
"G","VILLENEUVE-D'ASCQ","3.144823040512648","50.622956135373265"
"G","SALLES-COURBATIÈS","2.079196516726654","44.47551460594185"
"G","COLOMBIER-FONTAINE","6.689278127196173","47.45560582202106"
"G","OXELAËRE","2.461746472715491","50.78700163077851"
"G","SAINT-HILAIRE-AU-TEMPLE","4.3793499117240575","49.05580855294462"
"G","SAINT-LÉONARD-DE-NOBLAT","1.481632963257419","45.83215109814712"
"G","STEENBECQUE","2.509873716892215","50.680560430688914"
"G","LACELLE","1.82649066526703","45.64127225845143"
"G","LABOUHEYRE","-0.921092755817483","44.21058713206437"
"G","SAINT-PELLERIN","1.126829727299309","48.07356453513559"
"G","NOYELLES-SUR-MER","1.7047231549658206","50.1881763207719"
"G","VITRE","-1.2159618465222186","48.122306516637835"
"G","SAINT-LOUIS","7.544957063704836","47.59827228086922"
"G","LANTENAY","4.861075071153688","47.335118514203444"
"G","LIVRON-SUR-DRÔME","4.830120793516716","44.77973148760327"
"G","CHAMPIGNEULLES","6.1688719063303274","48.73493248714042"
"G","MANTES-LA-VILLE","1.7073173503804193","48.987295265591634"
"G","LE VERDON-SUR-MER","-1.0652367311016755","45.5579578592108"
"G","NONANT-LE-PIN","0.219878751289123","48.703756536568214"
"G","TURENNE","1.6007429273061","45.0378312288653"
"G","CAUREL","4.145357680512822","49.31532967150995"
"G","MONTLUEL","5.058616223665426","45.84807684968764"
"G","SAINT-CLOUD","2.2146198868557314","48.847537343034894"
"G","CORGOLOIN","4.917058362420628","47.084012893430376"
"G","LA VILLE-AUX-DAMES","0.77992017283015","47.390314794202645"
"G","MEE-SUR-SEINE (LE )","2.622362332021146","48.54106553995727"
"G","HERBLAY","2.161872775865862","48.990322193724175"
"G","VOIVRES-LÈS-LE-MANS","0.085242272357547","47.93036225071098"
"G","ESTISSAC","3.802414541228782","48.274286236155824"
"G","SAINT-PIERRE-LÈS-NEMOURS","2.685589778050997","48.26782830861583"
"G","SAULNES","5.829186647878633","49.531453251696185"
"G","VARADES","-1.019757190898349","47.37440465988891"
"G","AUBIN-SAINT-VAAST","1.970667038993278","50.39453048067372"
"G","DAX","-1.06648795141006","43.70992681254756"
"G","BOISVILLE-LA-SAINT-PÈRE","1.668701427426381","48.322333721827704"
"G","CRANSAC","2.272323395195654","44.52278441760414"
"G","LÉGNY","4.575519138079503","45.90651581214318"
"G","FLIN","6.659235811497861","48.50500295101705"
"G","TESTE-DE-BUCH (LA )","-1.142811777104821","44.637111744166084"
"G","KOENIGSMACKER","6.273479020895914","49.396556194681395"
"G","CUSSET","3.457902251870886","46.13898730548321"
"G","LE ROVE","5.257005477918977","43.34011565878121"
"G","ESTRÉES-SAINT-DENIS","2.642715127062509","49.43788257800022"
"G","LE BREUIL-SUR-COUZE","3.262149225132201","45.467136147717795"
"G","PONTORSON","-1.504908810054122","48.55243177361564"
"G","VERTAIZON","3.288416384375966","45.784639879943335"
"G","DOURDAN","2.003197539196366","48.53457877194736"
"G","SAINT-SENOUX","-1.766135330503265","47.89787749005208"
"G","UZERCHE","1.570538987833829","45.441162918638696"
"G","ROEULX","3.3428198654023564","50.31236195276909"
"G","LUZARCHES","2.421561278801477","49.11770271668709"
"G","RAINCY (LE )","2.512558758919036","48.889144189236625"
"G","OULLINS","4.813258366240893","45.71756367165197"
"G","BREBIÈRES","3.01371475780044","50.336298399884804"
"G","CHÂTEAUNEUF-SUR-CHER","2.311632018518727","46.855766563737156"
"G","JONCHEREY","6.999789707654572","47.52481432980353"
"G","CORMEILLES-EN-PARISIS","2.193380215177233","48.968388207390454"
"G","VOUJEAUCOURT","6.765994146241962","47.47674641357887"
"G","NOVILLARS","6.132814644078752","47.28396223971061"
"G","CHOUZY-SUR-CISSE","1.247857321419655","47.52032137784461"
"G","CARMAUX","2.151892510951","44.04885485361095"
"G","MIGNY","2.031438251809696","47.006449977445364"
"G","MAREIL-SUR-MAULDRE","1.871552843730546","48.8936706358685"
"G","AUTET","5.700661667009132","47.54129732337047"
"G","ARCHES","6.529674525452037","48.11938968226595"
"G","LOREUX","1.834338665664359","47.39020300817494"
"G","SOULAC-SUR-MER","-1.117391489531038","45.507969972595404"
"G","SALLÈLES-D'AUDE","2.946155642460429","43.26239184401905"
"G","LE CANNET-DES-MAURES","6.343171762065989","43.39025127371896"
"G","CHAMELET","4.507016244543598","45.98167025804158"
"G","VALLENAY","2.368230050773003","46.80190372174331"
"G","VERNEUIL-L'ÉTANG","2.825024773080076","48.64444131695957"
"G","DONTRIEN","4.412237746830279","49.244421840331825"
"G","SAINT-AMOUR","5.333509912931055","46.44117850603179"
"G","BITCHE","7.476102114611837","49.04890017752387"
"G","MONTMÉDY","5.371700640274836","49.523093923192405"
"G","VIVIERS-DU-LAC","5.903286256790191","45.64855116710634"
"G","CESSIEU","5.376503013725852","45.560946177685025"
"G","LA MEYZE","1.212602417879815","45.62079414050195"
"G","SAINT-MARCELLIN","5.323719250144489","45.15080169096363"
"G","MOUGINS","6.969385661951041","43.56908823946818"
"G","SAUMUR","-0.071437095818982","47.268738588448116"
"G","LA LÉCHÈRE","6.468704614901503","45.53933536334153"
"G","REIGNIER","6.267359175403358","46.12560763172893"
"G","WASQUEHAL","3.138716972159806","50.67914456808907"
"G","OUDON","-1.292323782330653","47.3431984973829"
"G","HERNY","6.476818963032504","49.00370728140269"
"G","LOSNE","5.254899999341728","47.08564439628549"
"G","THIAVILLE-SUR-MEURTHE","6.810414357035961","48.413727359479"
"G","KINTZHEIM","7.34634820775523","48.27695021439834"
"G","COYOLLES","2.988488393717152","49.233688390570805"
"G","MAILLÉ","0.583165439178813","47.05316642302488"
"G","AMILLY","1.389245105382949","48.438300570011556"
"G","LA HAIE-FOUASSIÈRE","-1.392252826266998","47.16148711034788"
"G","BAINVILLE-SUR-MADON","6.09954060367336","48.58599515017656"
"G","PORNICHET","-2.344704844934861","47.27066127767772"
"G","BAR-SUR-SEINE","4.381865469038444","48.11715793030451"
"G","SARREGUEMINES","7.074849181967997","49.1059742376864"
"G","LA LOUPE","1.013030297791755","48.475196340615724"
"G","MODANE","6.659377762509819","45.193429932426135"
"G","CHAUNY","3.222547526526231","49.61049752439723"
"G","SELESTAT","7.442583733016737","48.260789553830584"
"G","ROUFFACH","7.31264737011648","47.96020131985885"
"G","ARBANATS","-0.395514106466555","44.674320830247986"
"G","DOURGES","2.987020801896205","50.43219637796586"
"G","KUNTZIG","6.234602192195888","49.34993757027724"
"G","MACHECOUL","-1.823075713505101","46.99073752994372"
"G","EZANVILLE","2.363180961506846","49.02256855914811"
"G","CAUDROT","-0.144916843145097","44.5802046553113"
"G","COMINES","3.010180546894385","50.75123874950919"
"G","LEMPDES-SUR-ALLAGNON","3.271429342401075","45.38244171193367"
"G","LIVRY-SUR-SEINE","2.678950684970236","48.51037289873945"
"G","SAINTE-GENEVIEVE-DES-BOIS","2.311349268650718","48.652126468780416"
"G","BETHUNE","2.643777598620646","50.527332051228115"
"G","DISTROFF","6.260227352042514","49.335095397692164"
"G","BRETEUIL","1.611634207519105","49.22976238125981"
"G","VILLEFRANCHE-DE-ROUERGUE","2.037141060417348","44.34765567400817"
"G","GOND-PONTOUVRE","0.171257769804335","45.66125084472521"
"G","LE TEICH","-1.02560772982549","44.63235011251188"
"G","ÉPIERRE","6.292373612954408","45.45696244299644"
"G","SOTTEVILLE-LES-ROUEN","1.1020218354111546","49.414327778572584"
"G","GENSAC-LA-PALLUE","-0.250550676765578","45.65923090057697"
"G","ORIGNY-SAINTE-BENOITE","3.485766395828435","49.838695917618736"
"G","CHAMPAGNE-SUR-SEINE","2.799388254139055","48.406631413045"
"G","SIERENTZ","7.459421375280683","47.65615487596274"
"G","LANDERNEAU","-4.2511946767199635","48.455094548540906"
"G","BIARRITZ","-1.546701196505992","43.45903906706433"
"G","LES EYZIES-DE-TAYAC-SIREUIL","1.008250410889942","44.941132296051244"
"G","SEMUR-EN-AUXOIS","4.341946096567425","47.48820611970223"
"G","SAINT-SAUVEUR-MARVILLE","1.275271227080119","48.60180664013799"
"G","MAISSE","2.393061282260811","48.393174013107334"
"G","COURLANDON","3.733829606171373","49.30993983854904"
"G","BOLBEC","0.484986711748194","49.59160906018728"
"G","GRIESBACH-AU-VAL","7.173816631821866","48.04161748447335"
"G","SAINT-MASMES","4.268390666431735","49.3134022390633"
"G","GIVET","4.817813644678012","50.14091292925688"
"G","ACHERES","2.077781536261871","48.970114458751645"
"G","VILLERS-SAINT-SÉPULCRE","2.221714416454321","49.36724740468092"
"G","EBBLINGHEM","2.408935768702627","50.73066603559644"
"G","CHEILLY-LÈS-MARANGES","4.675645790792915","46.89258444391283"
"G","UGINE","6.417985349481818","45.74605775561713"
"G","PERTUIS","5.503648973811172","43.684422146424524"
"G","SAINGHIN-EN-WEPPES","2.913737904808621","50.55158876609415"
"G","COURNEUVE (LA )","2.4026365146588042","48.93717615274451"
"G","LAON","3.6237440229233093","49.57095035595011"
"G","VOIRON","5.595495375221777","45.363529700218024"
"G","PONS","-0.538959333426995","45.578136206906485"
"G","BOIS-LE-ROI","2.69055173862894","48.476397503236576"
"G","CEINTREY","6.15726971622567","48.52467504061759"
"G","BRAINE","3.539797001630332","49.33305628647187"
"G","IGNY","2.231029024422673","48.740122666316715"
"G","LA BONNEVILLE-SUR-ITON","1.034525909285541","48.98790860182572"
"G","LA CHAPELLE-SAINT-MESMIN","1.827004302449144","47.89298892341226"
"G","CÉRONS","-0.340829735297604","44.632159173017854"
"G","ROLLEVILLE","0.216204124828113","49.58159247227933"
"G","ALBIAS","1.443633051368783","44.09121318138205"
"G","VEUVES","1.123860874464395","47.47562823460634"
"G","FONTENAY-SUR-LOING","2.77219504594361","48.0965951411846"
"G","FLAVY-LE-MARTEL","3.190748290287538","49.7187021304641"
"G","LAISSEY","6.233693701063549","47.29914191592695"
"G","LA BERNERIE-EN-RETZ","-2.033746379782045","47.083155834972025"
"G","CHAMALIÈRES-SUR-LOIRE","3.992559029978426","45.20599098230012"
"G","BÉTHENY","4.043097193543958","49.27528533158918"
"G","VAUXAILLON","3.409818321961311","49.474208033273015"
"G","TRACY-SUR-LOIRE","2.880650704295121","47.337551105318724"
"G","CORCY","3.216285373262403","49.255392671419884"
"G","SAINT-MARTIN-D'ARROSSA","-1.304681483563124","43.23489159629231"
"G","THOUARS","-0.2091525246833605","46.98517935330314"
"G","ÉCOLE-VALENTIN","5.994103825955804","47.27487892839237"
"G","VULAINES-SUR-SEINE","2.753071315575744","48.43056863999238"
"G","GRIGNY","4.188739962237427","46.36580795480743"
"G","SAVERDUN","1.570693505005694","43.2393788222438"
"G","TROIS-PUITS","4.038472078371393","49.20711771012249"
"G","LABERGEMENT-SAINTE-MARIE","6.280391546709864","46.77645136860339"
"G","POUILLY-SUR-LOIRE","2.965051211539136","47.28252848274005"
"G","CHAPONOST","4.764649154604175","45.69884679639"
"G","NORTKERQUE","2.023379597770227","50.88288290487031"
"G","HARGICOURT","2.531831292120172","49.71365379571771"
"G","ALTKIRCH","7.233306337124295","47.62699262524957"
"G","AIGUEPERSE","3.198197540630287","46.014743548586964"
"G","LANDAUL","-3.085773818880881","47.735407015445205"
"G","CHÂTILLON","4.645186321129995","45.87517293010993"
"G","HERICOURT","6.769379068466185","47.572909400117844"
"G","ROCAMADOUR","1.657471417467261","44.818190489513476"
"G","CAMBO-LES-BAINS","-1.396682419231188","43.365557931703904"
"G","ERMONT","2.26508564448254","48.98587468833998"
"G","MORGNY-LA-POMMERAYE","1.247800610647558","49.523175878440505"
"G","CHESSY","3.7025836986398","47.377672768140144"
"G","TRÉON","1.315219900316437","48.67519173179545"
"G","RAISMES","3.478796397466136","50.390022831956706"
"G","RUMILLY","5.948156673869637","45.862896285726"
"G","ECULLY","4.760077445397871","45.79647556364824"
"G","SAINT-JEAN-DE-MAURIENNE","6.354860958216277","45.277800370426114"
"G","MONTMAGNY","2.328662032747888","48.95902745317701"
"G","SAINT-LO","-1.1015978755324725","49.115652233004624"
"G","SAINT-LEU-LA-FORET","2.242717056237729","49.01541026276837"
"G","LONGVIC","5.047449224021285","47.29382365316323"
"G","LUZY","3.969128076226552","46.7943472528084"
"G","DOMPIERRE-SUR-HELPE","3.871447513718091","50.14620866159239"
"G","VIRE","-0.8967070399724666","48.84635711849299"
"G","ROMILLY-LA-PUTHENAYE","0.855438127775816","49.003580561735056"
"G","MARIGNANE","5.25404483685121","43.40961464600039"
"G","DRAP","7.339017118416614","43.76417078049719"
"G","SAINT-PAUL-DE-FENOUILLET","2.506964114421622","42.811842470080606"
"G","LANDAS","3.290156478308408","50.468752121849114"
"G","FOËCY","2.162645373864507","47.17563873834608"
"G","LES MARTRES-DE-VEYRE","3.193478467446887","45.688146551282856"
"G","AVION","2.8342168588078467","50.41483140757373"
"G","SAINTES","-0.6175918111067901","45.74963744694213"
"G","FLEURVILLE","4.884080577669784","46.450956968357005"
"G","MONTOIRE-SUR-LE-LOIR","0.869810956512988","47.758065743759516"
"G","NOIZAY","0.89641539992827","47.409731141772575"
"G","LA PERCHE","2.586629516903347","46.62997636990084"
"G","AIGUES-MORTES","4.191091756201102","43.57088039271484"
"G","LIESLE","5.820793126524009","47.058685233493165"
"G","LA RIVIÈRE-DRUGEON","6.213336258681985","46.870110430628266"
"G","MAROLLES-EN-HUREPOIX","2.291189878826282","48.56353449595023"
"G","SAINT-CYR-SUR-MER","5.703752554715746","43.18536670423366"
"G","CHAMBOURG-SUR-INDRE","0.9654243523727","47.18165119449651"
"G","CARQUEFOU","-1.491540096944802","47.27691218565225"
"G","VIC-LA-GARDIOLE","3.799519790518108","43.500776527296345"
"G","OLORON-SAINTE-MARIE","-0.612202258968699","43.19475600274593"
"G","CHOLET","-0.8699008809777324","47.06593597117846"
"G","SENOZAN","4.870697323543834","46.39138853749181"
"G","LÉZIGNAN-LA-CÈBE","3.435022042211497","43.494151265277814"
"G","DEVILLE","4.707017563077379","49.880200975429595"
"G","SAINTE-GAUBURGE-SAINTE-COLOMBE","0.42889187820659","48.7174251331736"
"G","OBERMODERN-ZUTZENDORF","7.547081142045972","48.8422876020535"
"G","ÉVETTE-SALBERT","6.806540945699691","47.68130002905116"
"G","WEYERSHEIM","7.797037500770733","48.71798070228709"
"G","SAINT-PÉ-DE-BIGORRE","-0.161556515177564","43.10138731119912"
"G","FONTAINES-D'OZILLAC","-0.384150518489945","45.388325247539576"
"G","MELUN","2.6545540627572874","48.52752375229858"
"G","QUILLAN","2.181744509481686","42.873609277848715"
"G","SULLY-SUR-LOIRE","2.369459358034141","47.759800350075466"
"G","PORTES-LÈS-VALENCE","4.874246002845219","44.87953725685093"
"G","EAUBONNE","2.275196923032513","48.9805610579189"
"G","PROVINS","3.30307374775591","48.55561676128615"
"G","CROTTET","4.891637475704762","46.268476116454586"
"G","LES TROIS-DOMAINES","5.273714507612137","48.978506341284344"
"G","LA CROIX-EN-TOURAINE","0.987842992120873","47.33784724899481"
"G","LANGEAIS","0.410677308449883","47.3240049022944"
"G","LA TOUR-DE-SALVAGNY","4.716784277849419","45.79970236776525"
"G","DETTWILLER","7.464938345385739","48.75182793740594"
"G","MONTSOULT","2.325112212678805","49.06724603882667"
"G","STAFFELFELDEN","7.26515361133822","47.82755411576721"
"G","SAINT-JULIEN-SUR-DHEUNE","4.527957614159425","46.76928032662014"
"G","PIMPREZ","2.953860661788621","49.53410484180841"
"G","BERTRICHAMPS","6.791349301845821","48.42834511108835"
"G","LES CABANNES","1.68626685124549","42.78643042874622"
"G","LAVAUR","1.7838406761311711","43.71884696123847"
"G","BUSSIÈRE-GALANT","1.0274283667455095","45.60825984082896"
"G","CEAUX-EN-COUHÉ","0.244912132992897","46.30679512769684"
"G","FAVERNEY","6.043474433363755","47.75865896332187"
"G","MONTVILLE","1.069874551174672","49.5512072804505"
"G","PLOUNÉRIN","-3.56915921757564","48.58130509723133"
"G","TOURNUS","4.90639983186675","46.56673691344488"
"G","ABLAINCOURT-PRESSOIR","2.832038909165286","49.857763360724036"
"G","CHADENET","3.628354122404666","44.528613895562785"
"G","BEAUTIRAN","-0.450040817665555","44.701045740128066"
"G","CHORGES","6.271773650688589","44.545727228563074"
"G","BAZIÈGE","1.621479976532543","43.453119124402726"
"G","GAURIAGUET","-0.399167473147403","45.05452289293042"
"G","CAVAILLON","5.045120696746586","43.83082584972957"
"G","ISLES-SUR-SUIPPE","4.194537013547738","49.36169488594204"
"G","RETHEL","4.370261280952036","49.50463379393168"
"G","FOS-SUR-MER","4.872736929160142","43.44192350746653"
"G","AISEREY","5.157576590444653","47.17074180793193"
"G","BRETENIÈRE","5.103952656207275","47.22449702706597"
"G","MURET","1.323712595359554","43.464060980106666"
"G","BOURG-BRUCHE","7.137239281835361","48.36018907228446"
"G","PEYREHORADE","-1.115201805409079","43.5467837212579"
"G","LA ROCHE-SUR-FORON","6.303725828021828","46.06749064106157"
"G","HERRLISHEIM-PRÈS-COLMAR","7.320825947422454","48.01758069499349"
"G","VERNON","1.478464031558935","49.09116847125959"
"G","MONTREUIL-SOUS-PÉROUSE","-1.247911126925625","48.142982945076966"
"G","BYANS-SUR-DOUBS","5.852088069196292","47.11832925172662"
"G","LA RÉOLE","-0.030795563825907","44.57976680184522"
"G","SAINT-PIERRE-D'AURILLAC","-0.187547654474234","44.57521874160931"
"G","VANVES","2.291884534098069","48.81820275404127"
"G","SARRANCE","-0.599744499101692","43.04955546424897"
"G","CHANTILLY","2.459392185313763","49.18774048603881"
"G","MOUY","2.326570137374303","49.32054635326035"
"G","HOUDEMONT","6.179753784761157","48.645181271606106"
"G","MUILLE-VILLETTE","3.070957119074588","49.73954337157027"
"G","GARGES-LES-GONESSE","2.391164835206995","48.97725713426417"
"G","DONZÈRE","4.704596402183965","44.44315434179784"
"G","CONLIE","-0.010955510941006","48.127224276091155"
"G","VOUZIERS","4.705851241346434","49.38948151612966"
"G","SAINT-LÉON-SUR-L'ISLE","0.492393736576139","45.123254805200325"
"G","FITILIEU","5.575375257196813","45.54224893358837"
"G","JANZÉ","-1.49783796227674","47.955335981987055"
"G","LANDRECIES","3.681868598650192","50.128168519781205"
"G","SAINT-SAVINIEN","-0.677700531079588","45.875818750519606"
"G","AUDUN-LE-ROMAN","5.896820936804245","49.366200951114614"
"G","SAINT-RÉMY-DE-SILLÉ","-0.097951400609911","48.18111079913861"
"G","MAUZÉ-SUR-LE-MIGNON","-0.673751780430037","46.19973329084157"
"G","GRESSWILLER","7.42442392943557","48.533185884953646"
"G","SALEUX","2.226835968274724","49.862626503215616"
"G","RIVES","5.491635721739623","45.35817446902181"
"G","TRESSIN","3.189459870932936","50.61212980136401"
"G","AMBOISE","0.981144860058096","47.421508738952035"
"G","TASSIN-LA-DEMI-LUNE","4.767116644639928","45.760292056172275"
"G","MAUBEUGE","3.9449181538519964","50.26972933088304"
"G","CALONNE-RICOUART","2.480203208283241","50.48212643550599"
"G","SAINT-AUBIN-SUR-SCIE","1.066577283738475","49.8707884314073"
"G","TRENTELS","0.885032688721147","44.442969849702706"
"G","SAINT-GERVAIS-LES-BAINS","6.701760335771892","45.90673429155511"
"G","CHAVENON","2.939711917883879","46.41579644160492"
"G","MELESSE","-1.660059294471417","48.24256859137305"
"G","SORGUES","4.875773152001955","44.00533813502392"
"G","HOULGATE","-0.077176226521169","49.30002272376924"
"G","ÉVIAN-LES-BAINS","6.578426619097867","46.39775287167254"
"G","NOISY-LE-GRAND","2.579204206954621","48.82348530363406"
"G","OYONNAX","5.653142488148597","46.25955306243293"
"G","LUÇON","-1.167425227287922","46.46372375938148"
"G","BORDEAUX","-0.5668694462419295","44.835894246713174"
"G","MANTHES","4.98641079530983","45.31231044257792"
"G","SAINT-GEORGES-DE-MONS","2.834827212339965","45.93132255784207"
"G","BUTHIERS","2.48056514912169","48.28795027224733"
"G","MOLINGES","5.768147950993843","46.35703353199777"
"G","ROQUEBRUNE-CAP-MARTIN","7.462553607468277","43.75895192636002"
"G","CAUDIÈS-DE-FENOUILLÈDES","2.373080346213851","42.810639950853094"
"G","SAINT-GERMAIN-SUR-MEUSE","5.700663797466287","48.65169809135989"
"G","DANJOUTIN","6.866488167928119","47.620787230688144"
"G","BOÉ","0.661202924861093","44.1746108677454"
"G","FAULQUEMONT","6.603766395611025","49.04548594394726"
"G","RILLIEUX-LA-PAPE","4.8810994079389385","45.81439943258431"
"G","VILLENEUVE-LA-COMTESSE","-0.513011750386122","46.09871488224444"
"G","GILLEY","6.492516253612154","47.05031863967397"
"G","VERNET","1.425899142829474","43.433318075568145"
"G","LA CHAIZE-LE-VICOMTE","-1.282253565628194","46.676786297020804"
"G","TIERCÉ","-0.469527770762688","47.617621633630044"
"G","OERMINGEN","7.131867894670417","49.00041856696065"
"G","VERSAILLES","2.134229601037241","48.79934391565285"
"G","SCHWINDRATZHEIM","7.60067795014709","48.75358419451172"
"G","AULNOYE-AYMERIES","3.844968149469922","50.19795386955541"
"G","PAGNY-LE-CHÂTEAU","5.200920350342238","47.046281012592246"
"G","SAINT-JEAN-DE-LUZ","-1.661120875576861","43.385630538051984"
"G","ASSIER","1.869429048238437","44.67467122400689"
"G","BOLOGNE","5.134487035113108","48.19868372655206"
"G","BISCHWILLER","7.851355674808228","48.765575390214615"
"G","LAPEYROUSE","2.894060756863018","46.224909612572205"
"G","MEAUX","2.873403753140162","48.95683307565232"
"G","ENVEITG","1.9090920554136028","42.45834523317422"
"G","LOCQUIGNOL","3.743209619904144","50.15820001748976"
"G","LORIOL-SUR-DRÔME","4.816948130049003","44.754434398743"
"G","VIDAUBAN","6.433371018012588","43.432173803299214"
"G","LESTELLE-DE-SAINT-MARTORY","0.9124236126037","43.11854027220844"
"G","RENESCURE","2.372330558433976","50.73196874003682"
"G","VERRUYES","-0.307921453314562","46.533030608257725"
"G","TOURCOING","3.168343953703257","50.71667041877195"
"G","SIMANDRE-SUR-SURAN","5.421157705901726","46.220267861044405"
"G","BOUZONVILLE","6.529139172868558","49.289873677431316"
"G","VALLEROY","5.934437034177994","49.20508780036244"
"G","MONTFERRAND-LE-CHÂTEAU","5.907548270672133","47.184744967351804"
"G","CONNANTRE","3.923618975280735","48.73153220286092"
"G","PANTIN","2.400433570791011","48.898081816083256"
"G","LA MOTTE","6.514909433623959","43.48065342240392"
"G","SARRALBE","7.036668958348474","49.00035872607928"
"G","YERRES","2.481357750858454","48.70617437531325"
"G","PORT-SAINT-PÈRE","-1.739699065810333","47.11619407612604"
"G","SAINT-MARTIN-LE-BEAU","0.905859176101644","47.355075610579306"
"G","VOREY","3.910845069786845","45.183917174735306"
"G","HEILLES","2.273568340506388","49.34022305051906"
"G","COUFOULEUX","1.73146579760068","43.81990951111939"
"G","ORVAL","2.485791477260844","46.72643246817583"
"G","ROMANS-SUR-ISERE","5.049639169736672","45.04899423794729"
"G","CAPDENAC-GARE","2.0788216098594785","44.578100778794784"
"G","FARBUS","2.831068444424471","50.3577483374866"
"G","BUCHY","1.336076059966942","49.603288560518415"
"G","LA PORCHERIE","1.537872348932614","45.574544276090975"
"G","BOURRON-MARLOTTE","2.692614190301942","48.332714786210815"
"G","SAINT-PRIEST-DE-GIMEL","1.879639494361449","45.32876581451238"
"G","SAINTE-CÉCILE-D'ANDORGE","3.97574225810139","44.255087638353864"
"G","SAINT-CHÉRON","2.12573556579795","48.55109190923052"
"G","SAINT-BLAISE-LA-ROCHE","7.165571428718571","48.407715325539854"
"G","FLÉRÉ-LA-RIVIÈRE","1.108829467082647","47.02141318087097"
"G","PAMPROUX","-0.051722419679964","46.39980312130991"
"G","GUÉMENÉ-PENFAO","-1.870113281883948","47.69932007739704"
"G","TOURNAY","0.239057086985075","43.183416941481084"
"G","THENON","1.068998929951222","45.160018266999685"
"G","LAYRAC","0.664494266622702","44.1316787629252"
"G","CHINDRIEUX","5.846697892837232","45.80329859021544"
"G","LINGOLSHEIM","7.686636380391308","48.56134553558795"
"G","LORMONT","-0.530996594037636","44.88477639840179"
"G","SAINT-CHAMOND","4.517096513613868","45.47242263210801"
"G","FROUARD","6.144382289183608","48.75558453912504"
"G","NOGENT-SUR-SEINE","3.493949146077137","48.49804814623097"
"G","PUY-EN-VELAY (LE )","3.894211678987385","45.04371964956138"
"G","FÉPIN","4.725812200721467","50.02375575619918"
"G","BERGUES","2.426483957666874","50.967849637201105"
"G","MASSERET","1.541344325692093","45.536688021118316"
"G","VIVOIN","0.144908578210272","48.23019899107596"
"G","AMANCE","6.040162133896285","47.76242947100242"
"G","LE ROUGET","2.235482849392558","44.85662032700179"
"G","THUÈS-ENTRE-VALLS","2.222778080202633","42.522906676549844"
"G","ABBEVILLE","1.822663106101315","50.1035583418722"
"G","LE GENEST-SAINT-ISLE","-0.885527898913739","48.09677637508564"
"G","HURIEL","2.476189095890859","46.37144045824702"
"G","GÉNOLHAC","3.95165351149943","44.34727687339248"
"G","CARPENTRAS","5.043758281541285","44.04965392318101"
"G","HOCHFELDEN","7.572162441093835","48.755137916528135"
"G","VIVONNE","0.265134204186525","46.426482815041005"
"G","MONTAIGU","-1.31639690873476","46.98376391235179"
"G","MAZAMET","2.374807435653445","43.497891075793675"
"G","AUVERS-SUR-OISE","2.1592803876674824","49.0700681197948"
"G","BELLIGNAT","5.630501879615334","46.238939457824436"
"G","MONTRY","2.826401469990249","48.89084863209177"
"G","NEUILLY-SUR-MARNE","2.521345042686296","48.860010560437516"
"G","DREUIL-LÈS-AMIENS","2.228186020967347","49.91535661056301"
"G","LÉPIN-LE-LAC","5.765188064755025","45.54163587165105"
"G","TONNAY-CHARENTE","-0.897867253423509","45.94331739425593"
"G","CORPEAU","4.754577529101928","46.92567662046352"
"G","ACHICOURT","2.7664449008804155","50.27910490100058"
"G","FONTANES","1.511567988642954","44.332798411556034"
"G","LAMOTHE-MONTRAVEL","0.021529284724599","44.85378281621926"
"G","CHEVAIGNÉ","-1.630925579837672","48.20905987621851"
"G","BAISIEUX","3.234698972261435","50.61859900486093"
"G","PUYBRUN","1.784262657300073","44.921716616837"
"G","PACY-SUR-ARMANÇON","4.107603239235026","47.7791174558571"
"G","QUÉDILLAC","-2.145221664824248","48.24859752353942"
"G","OSSUN","-0.021273763775482","43.18339801923057"
"G","MANDELIEU-LA-NAPOULE","6.941497655888684","43.52393183445404"
"G","AX-LES-THERMES","1.83346662646096","42.724771434731764"
"G","LA VERPILLIÈRE","5.151626533234137","45.62715715169149"
"G","BÉARD","3.318262991726657","46.864610794532375"
"G","BARSAC","-0.320676943169895","44.603962005552916"
"G","RETOURNAC","4.037084538218064","45.20129888916648"
"G","CHALAIS","0.043488906033772","45.2707652420483"
"G","BLANQUEFORT","-0.623774102350654","44.91756827628922"
"G","BOUCHEMAINE","-0.617585830099876","47.417094375766126"
"G","MAZINGARBE","2.700505767812215","50.46089616785513"
"G","CHATEAUDUN","1.338379095861212","48.07318380474969"
"G","ENNEZAT","3.217009689572511","45.91608105370416"
"G","SANTILLY","1.912219233937802","48.14035752093684"
"G","ALLASSAC","1.472903260926275","45.25916237718533"
"G","LE MEUX","2.753199415737212","49.35937558804511"
"G","SOLIGNAC","1.284637857062299","45.75673206309774"
"G","COLLONGES-AU-MONT-D'OR","4.846431670967375","45.828936836344326"
"G","CHÂTEAUNEUF-SUR-LOIRE","2.226890967059251","47.868736929208545"
"G","CHALANDRAY","-0.002797909664154","46.66450455548419"
"G","ROEUX","2.894663063869079","50.30353095017339"
"G","EPINAL","6.447208775873673","48.162075745925726"
"G","DIJON","5.0351731005288585","47.316510942031165"
"G","VOLVIC","3.0010518615276762","45.86625300197493"
"G","HENIN-BEAUMONT","2.95246940126036","50.41689907443113"
"G","BENFELD","7.584028888287825","48.373645029444205"
"G","MARSEILLAN","3.536128365031008","43.31846337353806"
"G","GUERET","1.875869582341969","46.1746235137914"
"G","BOISSEAUX","1.972591773181168","48.25530706942869"
"G","AGONAC","0.748705624293986","45.286590073064275"
"G","LANNEMEZAN","0.3876625835348955","43.11410647480686"
"G","LIEVIN","2.77112574235923","50.4340818055316"
"G","LAUDUN","4.699523014673135","44.096285310150705"
"G","SAILLAGOUSE","2.0250041038894517","42.45999286717226"
"G","BOISSET","2.249573618534337","44.78563288456739"
"G","RACQUINGHEM","2.366143105441082","50.707843661901485"
"G","LA HOUSSIÈRE","6.877630055927241","48.19841684438636"
"G","FLERS-EN-ESCREBIEUX","3.084946919323701","50.39768903291043"
"G","ALBERT","2.644582576895565","50.00586126934948"
"G","MARCHEZAIS","1.513661379138585","48.7683066391684"
"G","INGWILLER","7.47674515511438","48.872010852923545"
"G","PAUILLAC","-0.755104732531348","45.20382280173109"
"G","BACOUEL-SUR-SELLE","2.193484241391459","49.83164196675783"
"G","CHAMPS-SUR-YONNE","3.603700203046033","47.7386232916123"
"G","LÉROUVILLE","5.54082215913365","48.79598388554095"
"G","RONCHAMP","6.623533739700717","47.699154651329216"
"G","SAINT-SAVIOL","0.21785214090915","46.14708610979323"
"G","NOVÉANT-SUR-MOSELLE","6.052355404407254","49.02816598959084"
"G","LYON","4.830853147121941","45.75406962477147"
"G","VALERGUES","4.060340238642484","43.67270834341559"
"G","LA ROCHEFOUCAULD","0.38984481512601","45.740241928094676"
"G","HAGUENAU","7.792789789934847","48.804625217523224"
"G","SAINT-MARTIN-DE-CRAU","4.800261847043873","43.62222528605967"
"G","ROSCOFF","-3.98283581320845","48.72064886373147"
"G","AVEZAC-PRAT-LAHITTE","0.361662204714232","43.08230065073437"
"G","ROCHEFORT","-0.963548062025048","45.94746632056426"
"G","ROINVILLE","1.776132001919894","48.441285385798544"
"G","MONTARGIS","2.743101065487438","48.00692235348153"
"G","AMNÉVILLE","6.135942550081968","49.260879766029134"
"G","DECIZE","3.467498543898969","46.837443130299"
"G","VITTEL","5.942242226000524","48.202635169665676"
"G","TANNAY","3.615134800485459","47.363016895951745"
"G","ANCENIS","-1.177773136553876","47.36947278885225"
"G","SERQUEUX","1.5397645174909245","49.6314174378805"
"G","VARENNES-VAUZELLES","3.134367946645677","47.00137653347217"
"G","NANTEUIL-LE-HAUDOUIN","2.793984979261508","49.142367029219045"
"G","SAINT-DENIS-LÈS-MARTEL","1.666495861437176","44.94571803823343"
"G","CORBEIL-ESSONNES","2.470809476559458","48.6065131527903"
"G","SÉRÉZIN-DU-RHÔNE","4.81781390682531","45.6272306552306"
"G","CHÂTEAUBOURG","-1.405157184612477","48.10629591057404"
"G","SAINT-MANVIEU-NORREY","-0.511975470740241","49.20325790205075"
"G","CHAMPAGNE-SUR-OISE","2.241409693547037","49.13551947940391"
"G","RUELLE-SUR-TOUVRE","0.22134335904864","45.676344690735036"
"G","LE PÉAGE-DE-ROUSSILLON","4.795278430026544","45.3716225998857"
"G","TOURNON-SAINT-MARTIN","0.958259265092073","46.73692973710935"
"G","BUNO-BONNEVAUX","2.387007586562321","48.37033137332853"
"G","REICHSTETT","7.779225055089902","48.64071266166891"
"G","SAINT-MATHURIN-SUR-LOIRE","-0.318085670106582","47.4122184178676"
"G","COURZIEU","4.548054274037052","45.74996403643635"
"G","BRIOUDE","3.378735969942512","45.300607050091536"
"G","BAILLEUL","2.7604735617225304","50.72097651490709"
"G","LIPSHEIM","7.672328564968048","48.49080627126732"
"G","PARMAIN","2.209820739579246","49.11456640820778"
"G","LANDÉVANT","-3.125638490824394","47.75951810905559"
"G","PONT-D'AIN","5.334213116969928","46.05385683262983"
"G","SAINT-SOLVE","1.397619507972418","45.312991479730286"
"G","NOYON","3.00667025565902","49.57700839771704"
"G","VILLEMOMBLE","2.502320710045842","48.894569274251694"
"G","WISCHES","7.260924031522538","48.502807676187814"
"G","LONGROY","1.552527458135907","49.982041058675236"
"G","SAINT-DENIS-DES-MURS","1.551115443571073","45.78907725482234"
"G","SAINT-VICTORET","5.252610886682446","43.4121618042207"
"G","PLERGUER","-1.850553974849737","48.53148389771887"
"G","VIARMES","2.368714735306664","49.11682368393774"
"G","JOINVILLE","5.144114026022076","48.44433716708518"
"G","PONTAULT-COMBAULT","2.617509201759023","48.80640786419705"
"G","SEDAN","4.930282526719133","49.69486281823431"
"G","LA COURONNE","0.101374335126247","45.604899250412586"
"G","MONTAZELS","2.248224891007013","42.94241062749167"
"G","CHAMONIX-MONT-BLANC","6.8844222366344","45.941237511775896"
"G","LE VIEIL-ÉVREUX","1.2107191799382089","48.99846324203064"
"G","VILLEDÔMER","0.864224703197544","47.529276095899725"
"G","LUÇAY-LE-MÂLE","1.436029821249122","47.13305556489261"
"G","PLOUAGAT","-2.974164934438718","48.533233396218996"
"G","LUMBRES","2.119656584832316","50.700622768538665"
"G","MOULINS-SUR-ORNE","-0.043834638492632","48.75597443299157"
"G","PITHIVIERS","2.246653885888747","48.17833032242162"
"G","SAINT-AMARIN","7.028770938676973","47.87280143803592"
"G","NUISEMENT-SUR-COOLE","4.309546835033817","48.879904067304025"
"G","LAROQUEBROU","2.192861260123337","44.96407265711421"
"G","SCHILTIGHEIM","7.740719647469733","48.610373529283635"
"G","NEUFCHÂTEL-HARDELOT","1.642795635812644","50.623354305083154"
"G","AUBOUÉ","5.970192427814392","49.21595030308611"
"G","US","1.970571442485532","49.099575309029696"
"G","SAINT-DENIS","2.3506903878833123","48.92780201360305"
"G","BRY-SUR-MARNE","2.524248552217098","48.83780138207766"
"G","MONESTIER-DE-CLERMONT","5.633407449369683","44.91154977362207"
"G","LAMBALLE","-2.5086536187485473","48.466010968396695"
"G","SAINT-SYMPHORIEN-DE-MARMAGNE","4.31610826132072","46.85333823841856"
"G","COARRAZE","-0.241749899600249","43.18160567878865"
"G","BISCHOFFSHEIM","7.497956250479541","48.48701434522969"
"G","MÉRENS-LES-VALS","1.83733661606178","42.65936456855758"
"G","COURNON-D'AUVERGNE","3.167945348365505","45.73875046844152"
"G","CHOUZÉ-SUR-LOIRE","0.155650519136053","47.24866027519581"
"G","SAINT-HILAIRE-DU-ROSIER","5.243897687873892","45.07152379259458"
"G","MARQUETTE-LEZ-LILLE","3.05084776305226","50.67247143779372"
"G","VERBERIE","2.745804967507698","49.3199613885081"
"G","GIVORS","4.770046004727964","45.592338053619244"
"G","ANGOULINS","-1.115623560111951","46.10794733842751"
"G","BOURNONCLE-SAINT-PIERRE","3.3102531931930694","45.36467382181682"
"G","HATRIZE","5.906485182260786","49.19255447743192"
"G","LANDÉBIA","-2.331300984369982","48.50718444179737"
"G","NANGIS","3.012973972585151","48.561264266580295"
"G","SAINT-PAUL-LES-DAX","-1.0516869258128896","43.720785821383075"
"G","SAINT-SAMSON-SUR-RANCE","-2.003131989956737","48.496070506893915"
"G","REZE","-1.549492482887928","47.19333466964187"
"G","LATHUS-SAINT-RÉMY","0.96503739464116","46.338102890734426"
"G","OLLIOULES","5.825090288335952","43.12242680804686"
"G","CARRY-LE-ROUET","5.153617535032011","43.33668381971023"
"G","LA CHAPELLE-LA-REINE","2.567472797272151","48.3220645289376"
"G","BALAGNY-SUR-THÉRAIN","2.344246592501725","49.294257290116214"
"G","SANNOIS","2.264010599110742","48.97012034624775"
"G","AIRVAULT","-0.145375927325575","46.80710706732838"
"G","YVETOT","0.750127475011409","49.62220857990937"
"G","LE COTEAU","4.086462865380574","46.023367531460465"
"G","OUGES","5.072215648113942","47.25631293079287"
"G","LUC-LA-PRIMAUBE","2.554709662483429","44.29215515184133"
"G","SAINT-MACLOU-DE-FOLLEVILLE","1.109879114118333","49.6771262477806"
"G","SAÔNE","6.101612875909963","47.20970012019143"
"G","VOUTRÉ","-0.292314504058485","48.134028595921606"
"G","DÉGAGNAC","1.340582050561411","44.65282088518395"
"G","TORPES","5.888707377212621","47.16369412388347"
"G","CHÂTEAU-RENAULT","0.901441463891866","47.58783274114799"
"G","ABLON-SUR-SEINE","2.417931573714535","48.72396312662991"
"G","BERGERAC","0.489255942648414","44.857181326922856"
"G","SAINT-BRICE-COURCELLES","3.988807460605649","49.26502984850878"
"G","BERRE-L'ETANG","5.179101685791576","43.50093056891871"
"G","MARSAC-SUR-L'ISLE","0.627743099906085","45.1838674338913"
"G","CHIVRES-EN-LAONNOIS","3.841926936066483","49.6374775282422"
"G","MAIZIERES-LES-METZ","6.158894528988208","49.22004496809626"
"G","SISTERON","5.947047136823874","44.189706319323065"
"G","POUGUES-LES-EAUX","3.093935198617941","47.076783868711495"
"G","BAZARNES","3.6803068326572195","47.67652633893341"
"G","CHEMILLÉ","-0.732113596517094","47.21783114153416"
"G","WIHR-AU-VAL","7.209782690819298","48.04613656163483"
"G","LUDRES","6.169946093243105","48.62154755201888"
"G","WAVRIN","2.930651359509798","50.56963903079445"
"G","LE POUZIN","4.750066436271399","44.751864561116314"
"G","PATAY","1.699937510826667","48.049414991103056"
"G","SARREBOURG","7.051979473908663","48.738594315098446"
"G","NEUILLY-LÈS-DIJON","5.11098084105131","47.281633488275936"
"G","ARS-SUR-MOSELLE","6.077933144586186","49.07423808913142"
"G","LAIGNES","4.364235018092948","47.85017033050934"
"G","VESOUL","6.152073277180682","47.61752703527606"
"G","FRÉTHUN","1.8120106229521404","50.90158903328249"
"G","COUTANCES","-1.441506759827911","49.04267183815639"
"G","SETE","3.6981847957682517","43.41313950000019"
"G","LABOISSIÈRE-EN-THELLE","2.136162166775652","49.288495150682685"
"G","DIEULOUARD","6.071541266219483","48.84382867601292"
"G","MARQUILLIES","2.866180949579939","50.547708306792146"
"G","SAINT-LOUBES","-0.432914030052802","44.92235430221012"
"G","AVOUDREY","6.434681229953385","47.1298142566013"
"G","COCHEREN","6.855131259270401","49.15234308711126"
"G","RAZAC-SUR-L'ISLE","0.599372607183737","45.166061853791916"
"G","CHENONCEAUX","1.065558671885167","47.33070612226006"
"G","BANDOL","5.749815526229215","43.140491048348736"
"G","DEUIL-LA-BARRE","2.32689445348201","48.97127470713242"
"G","SAINT-MICHEL-DE-MAURIENNE","6.471910120533972","45.21686650849768"
"G","TRELAZE","-0.474739304879561","47.45421946251403"
"G","WILWISHEIM","7.5076520421221","48.745911662028554"
"G","SAINT-MAMMÈS","2.814555363396877","48.38159397621057"
"G","SAINT-MAUR","1.627111446648888","46.80269930355671"
"G","SAINT-DENIS-DE-L'HÔTEL","2.129299883800866","47.873879048738836"
"G","VENDEUVRE","-0.088571740492798","48.97817201289052"
"G","MONTOIR-DE-BRETAGNE","-2.161601267156341","47.32074062561389"
"G","LUDON-MÉDOC","-0.611768523207315","44.97432408179623"
"G","COSNE-COURS-SUR-LOIRE","2.932260348665754","47.413901352730996"
"G","HIRSON","4.083289152533577","49.9163603009176"
"G","COLOMBIERS","3.1390109687851258","43.3185007318404"
"G","ISLE-D'ABEAU (L')","5.22039374211716","45.60709467933658"
"G","PEZOU","1.141013622640016","47.86735974833991"
"G","MILLAU","3.07437667979391","44.102428225009724"
"G","STENAY","5.170814631984934","49.493805074572684"
"G","NEUVILLE-AUX-BOIS","2.058897684244644","48.0707534219727"
"G","WAMBRECHIES","3.040106535159674","50.681308286743814"
"G","FERRIÈRES-EN-BRAY","1.738228318663168","49.4815139168411"
"G","GRISOLLES","1.302086225353943","43.827394407591115"
"G","CAPVERN","0.329604471903354","43.10350977826029"
"G","AGEN","0.626551130857366","44.206760512050096"
"G","SAINT-ETIENNE","4.399620920201711","45.44109064997095"
"G","ROLAMPONT","5.283077944475141","47.94868312635491"
"G","CHÂTEAU-ARNOUX-SAINT-AUBAN","5.997530523928267","44.06126714099895"
"G","VARETZ","1.438552277725909","45.20369731824401"
"G","SAINT-FLOUR","3.106143478141462","45.03497152028242"
"G","BREIL-SUR-ROYA","7.520597123586042","43.92552472156115"
"G","GIEN","2.636757350624025","47.698878641555325"
"G","WISSOUS","2.330890650909546","48.74116484835196"
"G","ISSOUDUN","1.987487716284132","46.95199502559162"
"G","ROCHY-CONDÉ","2.172762341046216","49.39840324263989"
"G","ROSHEIM","7.491321398410758","48.505209749442734"
"G","AIX-LES-BAINS","5.908896788371523","45.68816591994449"
"G","EVREUX","1.1526873621921458","49.01891861662335"
"G","VANDIÈRES","6.03900429105896","48.95248679502622"
"G","AIRE-SUR-LA-LYS","2.405933102461811","50.64130516051258"
"G","SAINT-HILAIRE-DE-RIEZ","-1.949563777771351","46.716638184040235"
"G","CAPDENAC","2.059719766977817","44.58421060539924"
"G","PONT-AUDEMER","0.51464195375008","49.35199663574239"
"G","AMBARES-ET-LAGRAVE","-0.486714405994234","44.932300298107734"
"G","FOLLIGNY","-1.4077835698211154","48.83004374951024"
"G","LEUC","2.321303189572111","43.13048958773777"
"G","MONISTROL-D'ALLIER","3.649860179389542","44.96959700426065"
"G","CHALINDREY","5.44703696260688","47.80759113071903"
"G","SAINT-ROMAIN-DE-POPEY","4.542261792981238","45.861718403451064"
"G","LUX","5.203727539284982","47.487873384704606"
"G","SAINT-SULPICE-ET-CAMEYRAC","-0.391144962036709","44.91412294201807"
"G","CAMPAGNE-SUR-AUDE","2.205488639530065","42.916747949686076"
"G","VILLEFRANCHE-SUR-MER","7.314163989149045","43.70695224551981"
"G","GRENAY","3.8947455836158884","48.053043288161675"
"G","NONANCOURT","1.192839793195551","48.775607268571356"
"G","HYERES","6.124135584381192","43.108725091185484"
"G","ÉPERNON","1.681695340721524","48.605087016642926"
"G","BRIOLLAY","-0.482848531792104","47.5736927162519"
"G","PONTARLIER","6.355204604007414","46.90017805120358"
"G","JONZAC","-0.441990254629341","45.43868717338337"
"G","ROESCHWOOG","8.029855501245246","48.83365122600304"
"G","GARGENVILLE","1.809192458890066","48.983008233963474"
"G","BRUYÈRES-SUR-OISE","2.326423206078788","49.15515715751033"
"G","SAINT-MESMIN","3.925603336237725","48.43855321993468"
"G","LA CHARITÉ-SUR-LOIRE","3.024081968586024","47.17996120945426"
"G","THIAIS","2.3708163260839994","48.74741253739649"
"G","ANDRESY","2.0544910001007115","48.9809311582093"
"G","BARR","7.456999566070088","48.40328808516546"
"G","MEXIMIEUX","5.193552383040875","45.90168310952925"
"G","MORLAIX","-3.832477837161316","48.577981731174525"
"G","LABÈGE","1.5230185624872996","43.53885487717125"
"G","TRITH-SAINT-LÉGER","3.4960947618731533","50.33162461614177"
"G","ÉGLY","2.222189294095017","48.58241085152793"
"G","TEMPLEUVE","3.16745534329931","50.539200158747654"
"G","MONTESCOURT-LIZEROLLES","3.251936978207889","49.738090356394565"
"G","HABSHEIM","7.418284187622341","47.737707520560846"
"G","MAILLY-LE-CAMP","4.178829817592018","48.67487955631586"
"G","BALBIGNY","4.187530677533176","45.81778663766585"
"G","GERMAINE","4.022858782942289","49.12805579944981"
"G","TAGOLSHEIM","7.264262947478973","47.65548985977194"
"G","SAINT-MARTIN-DU-MONT","5.303176213411802","46.09586466972748"
"G","FONDAMENTE","3.109694918299909","43.868444642010424"
"G","MAZEYRAT-D'ALLIER","3.494734866149104","45.16047357280196"
"G","RUMINGHEM","2.159589176929757","50.86134464617019"
"G","SAINT-GERMAIN-SUR-MORIN","2.85423876033952","48.88268311019452"
"G","LOUPERSHOUSE","6.908157436156166","49.08798798160462"
"G","NEUILLÉ-PONT-PIERRE","0.56491028980691","47.55801500355749"
"G","MARSEILLE","5.37889555149255","43.32524458035733"
"G","CHÂTENOIS","6.620114761518451","48.2890160488528"
"G","VAIRES-SUR-MARNE","2.639812414451987","48.8753517513271"
"G","SOMMESOUS","4.194058747735006","48.73642328461103"
"G","MAUVES-SUR-LOIRE","-1.389123609528093","47.2928631547842"
"G","CIRY-LE-NOBLE","4.299610871448938","46.604063976569954"
"G","QUESNOY-LE-MONTANT","1.702417123690925","50.10883000876429"
"G","AVRECHY","2.418189673942194","49.44511010834826"
"G","CLUSES","6.582707514462019","46.061402280505185"
"G","LE LARDIN-SAINT-LAZARE","1.226449372516202","45.12665773700414"
"G","SAINT-PAUL-DE-VARAX","5.128115701915889","46.1001189819199"
"G","SAINT-PATERNE-RACAN","0.478341244635406","47.60415206613253"
"G","MONT-DE-MARSAN","-0.5029485814600926","43.8848135809329"
"G","MIRAUMONT","2.734761223883659","50.09574294466118"
"G","NIEUL","1.172401246403464","45.92737949022554"
"G","FONTENAY-LE-FLEURY","2.041108118681261","48.807151101822356"
"G","CRÉCY-LA-CHAPELLE","2.8945345579105384","48.86136358170558"
"G","BRENY","3.352527882683758","49.1875213601501"
"G","CIVRAY","0.288804138443457","46.150398475374224"
"G","ROCHELLE (LA )","-1.1648990072122303","46.15883875209805"
"G","RÉGNY","4.215337566332648","45.98762679101134"
"G","UCHAUD","4.267364832101653","43.75797924386263"
"G","CAMBRAI","3.2494789707027882","50.17622667451505"
"G","MONTREUIL-BELLAY","-0.14792629839626","47.125542778883705"
"G","UCKANGE","6.156190363131994","49.30344104441216"
"G","HOENHEIM","7.758131558822099","48.628759388264264"
"G","AVIGNONET-LAURAGAIS","1.788553039527903","43.36347526960493"
"G","GAN","-0.39146276503243","43.23429064615869"
"G","ILLE-SUR-TÊT","2.62421294273941","42.668211445185555"
"G","AUBUSSON","2.160766800262103","45.96053639366277"
"G","FLEURIEUX-SUR-L'ARBRESLE","4.660592553132625","45.844585178584154"
"G","PRESLES","2.287901978158134","49.11345994243122"
"G","JÂLONS","4.18793918511172","49.01173369676589"
"G","THERDONNE","2.130185109183464","49.41953399558777"
"G","CHAULNES","2.801680729775468","49.80719011793791"
"G","JESSAINS","4.583271713436319","48.28456110565843"
"G","LAIGNEVILLE","2.449081109849179","49.29323143422546"
"G","LA CHAUSSÉE-SAINT-VICTOR","1.354420280026798","47.613178498938076"
"G","LONGEVILLES-MONT-D'OR","6.3047205341543","46.75254835088413"
"G","SAINT-HILAIRE-SUR-HELPE","3.913289822507938","50.13217595242648"
"G","CHÂTEAU-DU-LOIR","0.4150077395760525","47.68305241934374"
"G","PONT-DE-BUIS-LÈS-QUIMERCH","-4.086206420569091","48.25436265951535"
"G","CRAMPAGNA","1.608078902407974","43.01220711368319"
"G","BEINHEIM","8.069893420686867","48.86155420106867"
"G","PARSAC","2.174491349164221","46.198338942829395"
"G","SAINT-LAURENT-DU-VAR","7.194535122899683","43.662303986870974"
"G","VILLETANEUSE","2.342504679282486","48.95995301702822"
"G","BREST","-4.479243011743669","48.3879297952412"
"G","RANSPACH","7.012646752152496","47.88162503676015"
"G","AUBERGENVILLE","1.848450617082139","48.97211162611124"
"G","ALBIGNY-SUR-SAÔNE","4.832693982484384","45.87477741882385"
"G","DOL-DE-BRETAGNE","-1.74987248932575","48.5438989124489"
"G","ARTIX","-0.569874724536231","43.39281849595891"
"G","SCHOPPERTEN","7.055576639754776","48.945922397717084"
"G","SALZUIT","3.500321277993668","45.210402946711454"
"G","YCHOUX","-0.946028418511693","44.329154870463576"
"G","VILLERS-LES-POTS","5.348341966349595","47.206438928878384"
"G","CHAVANGES","4.586064025145335","48.5083156467384"
"G","THENISSEY","4.622913908240606","47.49460857303555"
"G","BUEIL","1.4436697202123576","48.92517551191855"
"G","FONTAINE-LE-PORT","2.75122393525311","48.48715805687002"
"G","DAMBACH-LA-VILLE","7.43582504943569","48.321586731686594"
"G","COMMENTRY","2.7439298007188553","46.297003045656616"
"G","BESANCON","6.020365267120491","47.244162951151296"
"G","LAMARCHE","5.76038720617832","48.0902790594606"
"G","GRENADE-SUR-L'ADOUR","-0.424887041861246","43.777303771259746"
"G","SELTZ","8.098150966382955","48.896706059777365"
"G","ARPAJON","2.240991107437124","48.58603053676793"
"G","LE PERRAY-EN-YVELINES","1.856482220506106","48.69298365102392"
"G","ROUILLÉ","0.041896403862968","46.418749776034865"
"G","LECELLES","3.403718496274773","50.466288242717546"
"G","VARENNES-SUR-FOUZON","1.614584534849485","47.2144220139427"
"G","BRIARE","2.7555441564399294","47.627765486408464"
"G","SERVON-SUR-VILAINE","-1.463135340881243","48.11223075302593"
"G","APPILLY","3.120975177416343","49.580604880191174"
"G","CONDÉ-SUR-VIRE","-1.039980047765918","49.05125552578295"
"G","CRAU (LA )","6.068743100580353","43.14487223857758"
"G","SAINT-CERGUES","6.303318787769152","46.2272535831692"
"G","CONTREXÉVILLE","5.89060025319197","48.179604336817256"
"G","THOUARÉ-SUR-LOIRE","-1.441041066885646","47.26508698273898"
"G","RANTIGNY","2.445441543358006","49.32516189953008"
"G","BOUSSENS","0.971842690781518","43.179176410227"
"G","TOURY","1.939340836663573","48.19229349102576"
"G","ALET-LES-BAINS","2.251998052127515","42.99727450737012"
"G","BEAUREPAIRE","5.057613050360597","45.330627288652366"
"G","SAINT-FONS","4.852454240622254","45.70575011194421"
"G","GILLY-SUR-LOIRE","3.782078688484614","46.537250248153086"
"G","SAVONNIÈRES","0.544098494950576","47.36062667812934"
"G","SAINT-JUNIEN","0.900404655614266","45.88137862112438"
"G","LONGJUMEAU","2.3055365650146884","48.69387975401314"
"G","AIXE-SUR-VIENNE","1.145647625204983","45.79649852975975"
"G","PONT-SUR-YONNE","3.201645201502238","48.287315768993324"
"G","BÉDARIEUX","3.1486429664697724","43.606843975451476"
"G","BRECH","-3.010550982872243","47.681791608601614"
"G","TENAY","5.500960316594447","45.92229568025614"
"G","ALIZAY","1.160090460633537","49.31695824462777"
"G","CONCARNEAU","-3.9123908659653353","47.898326391812084"
"G","BAGNAC-SUR-CÉLÉ","2.160130050569516","44.66510697898992"
"G","GRAMAT","1.722316178276392","44.77346913309101"
"G","PRUNIERS-EN-SOLOGNE","1.702453687596139","47.33240828006836"
"G","AUBEVOYE","1.352437846350875","49.17476031524398"
"G","SAINT-SEBASTIEN-SUR-LOIRE","-1.5035982563594135","47.19893666138521"
"G","EYGLIERS","6.615536685768046","44.674572708782506"
"G","DOMMARTIN","3.563506033149344","47.82003252774686"
"G","BOISLEUX-AU-MONT","2.771761055202263","50.210186413825184"
"G","ANCERVILLE","5.011229381005264","48.6162225595888"
"G","HOUDAN","1.602775646259152","48.79600087528386"
"G","HAVRE (LE )","0.1494937885602717","49.49745621709655"
"G","DAMBLAIN","5.656347039138558","48.09380678341434"
"G","CRETEIL","2.435515275173952","48.771239125868725"
"G","MANOSQUE","5.793010163891369","43.822739899302086"
"G","LA FRETTE-SUR-SEINE","2.180065905880359","48.98019761511587"
"G","MIGNÈRES","2.632307584096138","48.042394433348036"
"G","MANDUEL","4.492627588267506","43.82099220890542"
"G","SAINT-AULAIRE","1.398597219020132","45.24914277558258"
"G","PLEINE-FOUGÈRES","-1.565841005726765","48.52990705222532"
"G","RAEDERSHEIM","7.284060687731498","47.88708451932602"
"G","CREUTZWALD","6.673892209155985","49.19473919724611"
"G","QUINCIEUX","4.778864810556997","45.90662720302737"
"G","BUGEAT","1.924701307116646","45.600671390919544"
"G","MARIGNY","-0.428368195173377","46.19907984544713"
"G","LORIENT","-3.3704396503085725","47.754559705301304"
"G","MONTREUX-CHÂTEAU","6.994918229950353","47.610072500121284"
"G","VIRY-CHATILLON","2.386823087795419","48.67612207544676"
"G","BAZANCOURT","4.174495614115393","49.36137467424595"
"G","TOURVILLE-LA-RIVIÈRE","1.100719697749067","49.32787473495134"
"G","AUDRUICQ","2.077877020622633","50.875282338286695"
"G","LA VEUVE","4.323629130883944","49.02154237363691"
"G","GIROMAGNY","6.830512333160282","47.736582151103306"
"G","CAGNY","-0.260107811928255","49.14114275295679"
"G","FOIX","1.606884171012564","42.96964899731326"
"G","GARCHIZY","3.086003179809804","47.04298176279929"
"G","MURAT","2.869632362496703","45.109055864544665"
"G","PIERREFITTE-SUR-SEINE","2.370183867406499","48.962222844020545"
"G","MENTON","7.505167549716202","43.77989642805328"
"G","SAINT-GILLES","1.2752459862850105","45.90587999937246"
"G","SERMAISE","2.068711556072385","48.53547028542868"
"G","ROSNY-SUR-SEINE","1.630118489473192","48.997391608149435"
"G","CLERVAL","6.492127092735171","47.39662136009772"
"G","LA POSSONNIÈRE","-0.6945910708292136","47.37106408285215"
"G","NESLE","2.909003683132353","49.7640751454266"
"G","LE GRAND-LEMPS","5.423517625896945","45.39606641081278"
"G","ANZIN","3.518098618427038","50.38614910576885"
"G","SAINT-CHÉLY-D'APCHER","3.270797800665272","44.80169452565202"
"G","GARANCIÈRES","1.764818944087776","48.810431284633346"
"G","NUITS","4.211601567157849","47.73128016090685"
"G","OLETTE","2.272011858927273","42.55466061702315"
"G","SANTEUIL","1.949101836775275","49.12405278609706"
"G","PUTEAUX","2.2361402070195826","48.888476501128544"
"G","RIVESALTES","2.8669442686951543","42.76814318809481"
"G","LA BRILLANNE","5.892236026425313","43.92426818818077"
"G","AUBRIVES","4.761766683434948","50.10432227905831"
"G","LANGUIDIC","-3.073717475533749","47.87200576208017"
"G","SAINT-BRIEUC","-2.753043331557318","48.51176005131071"
"G","MANSAC","1.365438295811421","45.139675183439486"
"G","ONDRES","-1.456896038241611","43.568787790173175"
"G","SAVIGNY-LE-TEMPLE","2.583524582251346","48.5970370806154"
"G","ÉTALANS","6.270665680069556","47.15598364925356"
"G","SAINT-VICTOR-SUR-RHINS","4.281196242917453","46.00228968421425"
"G","FRETIN","3.148901426869477","50.56074515954315"
"G","GRAGNAGUE","1.567811017541112","43.69649898572073"
"G","GOURDAN-POLIGNAN","0.5758203450270709","43.07751764549394"
"G","PONTFAVERGER-MORONVILLIERS","4.320139560417969","49.3024773354827"
"G","SIERCK-LES-BAINS","6.350145410078853","49.444008140882424"
"G","CUGAND","-1.253460161353398","47.05830362769608"
"G","BEAULIEU-SUR-MER","7.331810867434681","43.7066904700034"
"G","MONTROND-LES-BAINS","4.247983492021761","45.64428895072527"
"G","FOUGERÉ","-1.231238969907112","46.665080121649055"
"G","MONTAIGUT-LE-BLANC","1.733969543853879","46.136892801435906"
"G","ROTHAU","7.207432343690648","48.45922303173024"
"G","CERGY","2.04177022533776","49.04475551108927"
"G","SAINCAIZE-MEAUCE","3.0715735337370944","46.93168798308974"
"G","SAINT-GENIÈS-DE-MALGOIRÈS","4.214922021943824","43.950116086569786"
"G","TURCKHEIM","7.288800026518217","48.087232255155186"
"G","MONTAUBAN","1.341127241507155","44.014195331668475"
"G","BOËSSÉ-LE-SEC","0.572453197132248","48.12233132668593"
"G","MIRIBEL","4.932250679716266","45.84815811321543"
"G","GARDONNE","0.331967638905795","44.834667775010615"
"G","GEVREY-CHAMBERTIN","4.998960077909259","47.22728961857255"
"G","BERLAIMONT","3.808909545062166","50.19821011578526"
"G","SAINT-GEOURS-DE-MAREMNE","-1.241071350268976","43.67127697552571"
"G","RÉDING","7.10119118273047","48.74175677483898"
"G","LAUTERBOURG","8.182587532363396","48.96716996582567"
"G","COLTAINVILLE","1.582540248899913","48.489401884573184"
"G","LA CHAPELLE-DE-GUINCHAY","4.772710941085322","46.213072656757255"
"G","CROUY-SUR-OURCQ","3.062942239102605","49.09162143666499"
"G","MULHOUSE","7.322999210912004","47.74704991744461"
"G","VILLIERS-LE-SEC","5.068818023832247","48.11209047560394"
"G","HOMBOURG-BUDANGE","6.350766897687048","49.2824671530257"
"G","SAINT-PIERRE-LES-ELBEUF","1.036414144071982","49.26816913310937"
"G","ARENGOSSE","-0.809382127228127","44.006867800546566"
"G","ARC-ET-SENANS","5.77611803262397","47.030874678444135"
"G","L'ARGENTIÈRE-LA-BESSÉE","6.556249737151195","44.79098320934446"
"G","LA MÉNITRÉ","-0.275982998842375","47.39730385204992"
"G","VIAS","3.426409059215434","43.316986061933164"
"G","MARGAUX","-0.685429458288948","45.03585421890331"
"G","EMBRUN","6.496152519028345","44.566747569484306"
"G","SCHIRMECK","7.215942084030169","48.48000390764602"
"G","VÉZELISE","6.10077558400842","48.48065805383515"
"G","LA NORVILLE","2.267487134649648","48.591691751296445"
"G","KILSTETT","7.855196999735624","48.679576553372144"
"G","LIZINES","3.147130326159849","48.53625529025413"
"G","BRESSUIRE","-0.4985254626522297","46.8338064103042"
"G","LOURES-BAROUSSE","0.610528648210812","43.021095025129014"
"G","BRION","5.558448838765809","46.17569209292222"
"G","COUTRAS","-0.1307844556745595","45.037213642067336"
"G","BAVAY","3.7804988146322183","50.29682048568272"
"G","MONTAIGNAC-SAINT-HIPPOLYTE","1.97879848236201","45.35405232684415"
"G","VILLENEUVE-LE-ROI","2.426928989786292","48.73821835231162"
"G","VICQ-SUR-BREUILH","1.443594275433421","45.62927363526485"
"G","RINXENT","1.731516881842938","50.805390655180474"
"G","BOHAIN-EN-VERMANDOIS","3.442709355245428","49.98849723417581"
"G","PANISSAGE","5.471451660227618","45.491251882818005"
"G","COURTHEZON","4.888305271096914","44.08991024825616"
"G","RUFFEY-LÈS-ECHIREY","5.079175945213073","47.37048889594592"
"G","ATTIGNY","4.580578950679025","49.483379959998295"
"G","DANGÉ-SAINT-ROMAIN","0.608810660456076","46.93787613584683"
"G","VITROLLES","5.237107512143576","43.441197332164776"
"G","MORRE","6.067525527698583","47.22582216804058"
"G","NIMES","4.347090907438712","43.823037586078215"
"G","LONGUEIL-SAINTE-MARIE","2.71806764446318","49.342635107685346"
"G","MINIAC-MORVAN","-1.914912870784899","48.53148250249677"
"G","SATHONAY-CAMP","4.878429559171022","45.82260534853966"
"G","FARÉBERSVILLER","6.861820538036602","49.11808246196308"
"G","LA WANTZENAU","7.82507469852873","48.66534521263562"
"G","DERCY","3.692040868849259","49.70263602649007"
"G","SAINT-FLORENT-SUR-CHER","2.252712021053594","46.99303312816467"
"G","LA ROCHE-EN-BRENIL","4.17015819244852","47.385206129666805"
"G","PÉROLS-SUR-VÉZÈRE","1.977687227245846","45.58480449106402"
"G","PIERRELATTE","4.703944257544838","44.37464620538406"
"G","WINGEN-SUR-MODER","7.381540309334985","48.92008500247013"
"G","SAINT-POURÇAIN-SUR-SIOULE","3.299085740982358","46.30503520484824"
"G","SAINT-ANDRÉ-DE-CORCY","4.948707636273644","45.925981717567566"
"G","RONCENAY","4.058283261027769","48.195345673895545"
"G","MEULAN","1.920156337778501","49.00678520012826"
"G","LUS-LA-CROIX-HAUTE","5.697075587759043","44.67041983913662"
"G","LA GUERCHE-SUR-L'AUBOIS","2.946976913107338","46.948085372221115"
"G","LANGOGNE","3.8580526030409468","44.732333860989186"
"G","AILLY-SUR-SOMME","2.200728631856053","49.928468237121315"
"G","AUBIGNY-EN-ARTOIS","2.592783571516057","50.353076781809"
"G","LONGUEVILLE-SUR-SCIE","1.110611610207286","49.79175692319872"
"G","LUTTENBACH-PRÈS-MUNSTER","7.118844201837517","48.03530647173009"
"G","SALBRIS","2.047216427379958","47.42666083031915"
"G","FROMENTAL","1.434917653629542","46.17320437330627"
"G","SAINS-DU-NORD","4.001577664406883","50.08866973398011"
"G","RUNGIS","2.3574325176866595","48.74210076900226"
"G","TIERCELET","5.873847773726666","49.459808118257065"
"G","PERRIGNIER","6.425947054459164","46.30417766520806"
"G","SAINT-PRIEST-TAURION","1.38954113443334","45.89661924849699"
"G","LENTILLY","4.674736736293134","45.8191670831103"
"G","BLONVILLE-SUR-MER","0.035479261871257","49.33133620527306"
"G","LE DORAT","1.081377020459705","46.20910371281915"
"G","LAVOÛTE-SUR-LOIRE","3.90675398323392","45.12156206212578"
"G","ALLEYRAS","3.67331356088539","44.91879988332404"
"G","SAVIGNY-SUR-ORGE","2.350796401210213","48.67458035626294"
"G","CORPS-NUDS","-1.575345244729686","47.985160008403604"
